<?xml version="1.0" encoding="UTF-8"?>
<kml xmlns="http://earth.google.com/kml/2.1">
<Document>
	<name><![CDATA[List of mountains of the Alps above 3000 m]]></name>
	<open>1</open>
	<Folder>
		<name><![CDATA[Alpine mountains over 3000 m high]]></name>
		<open>1</open>
		<Placemark>
			<name><![CDATA[1. Mont Blanc (4808 m)]]></name>
			<Point>
				<coordinates>6.86444444444444,45.8325,0</coordinates>
			</Point>
			<Snippet></Snippet>
			<description><![CDATA[<br>Source: Wikipedia article <a href="https://en.wikipedia.org/wiki/List_of_mountains_of_the_Alps_above_3000_m#cite_ref-11">List of mountains of the Alps above 3000 m</a>]]></description>
		</Placemark>
		<Placemark>
			<name><![CDATA[2. Monte Rosa / Mont Rose (Dufourspitze) (4634 m)]]></name>
			<Point>
				<coordinates>7.86694444444444,45.9369444444444,0</coordinates>
			</Point>
			<Snippet></Snippet>
			<description><![CDATA[<br>Source: Wikipedia article <a href="https://en.wikipedia.org/wiki/List_of_mountains_of_the_Alps_above_3000_m#cite_ref-11">List of mountains of the Alps above 3000 m</a>]]></description>
		</Placemark>
		<Placemark>
			<name><![CDATA[3. Dom (4545 m)]]></name>
			<Point>
				<coordinates>7.85888888888889,46.0938888888889,0</coordinates>
			</Point>
			<Snippet></Snippet>
			<description><![CDATA[<br>Source: Wikipedia article <a href="https://en.wikipedia.org/wiki/List_of_mountains_of_the_Alps_above_3000_m#cite_ref-11">List of mountains of the Alps above 3000 m</a>]]></description>
		</Placemark>
		<Placemark>
			<name><![CDATA[4. Lyskamm (4527 m)]]></name>
			<Point>
				<coordinates>7.83555555555556,45.9222222222222,0</coordinates>
			</Point>
			<Snippet></Snippet>
			<description><![CDATA[<br>Source: Wikipedia article <a href="https://en.wikipedia.org/wiki/List_of_mountains_of_the_Alps_above_3000_m#cite_ref-11">List of mountains of the Alps above 3000 m</a>]]></description>
		</Placemark>
		<Placemark>
			<name><![CDATA[5. Weisshorn (4506 m)]]></name>
			<Point>
				<coordinates>7.71583333333333,46.1013888888889,0</coordinates>
			</Point>
			<Snippet></Snippet>
			<description><![CDATA[<br>Source: Wikipedia article <a href="https://en.wikipedia.org/wiki/List_of_mountains_of_the_Alps_above_3000_m#cite_ref-11">List of mountains of the Alps above 3000 m</a>]]></description>
		</Placemark>
		<Placemark>
			<name><![CDATA[6. Matterhorn / Mont Cervin (4478 m)]]></name>
			<Point>
				<coordinates>7.65861111111111,45.9763888888889,0</coordinates>
			</Point>
			<Snippet></Snippet>
			<description><![CDATA[<br>Source: Wikipedia article <a href="https://en.wikipedia.org/wiki/List_of_mountains_of_the_Alps_above_3000_m#cite_ref-11">List of mountains of the Alps above 3000 m</a>]]></description>
		</Placemark>
		<Placemark>
			<name><![CDATA[7. Dent Blanche (4357 m)]]></name>
			<Point>
				<coordinates>7.61194444444444,46.0341666666667,0</coordinates>
			</Point>
			<Snippet></Snippet>
			<description><![CDATA[<br>Source: Wikipedia article <a href="https://en.wikipedia.org/wiki/List_of_mountains_of_the_Alps_above_3000_m#cite_ref-11">List of mountains of the Alps above 3000 m</a>]]></description>
		</Placemark>
		<Placemark>
			<name><![CDATA[8. Grand Combin (4314 m)]]></name>
			<Point>
				<coordinates>7.29916666666667,45.9375,0</coordinates>
			</Point>
			<Snippet></Snippet>
			<description><![CDATA[<br>Source: Wikipedia article <a href="https://en.wikipedia.org/wiki/List_of_mountains_of_the_Alps_above_3000_m#cite_ref-11">List of mountains of the Alps above 3000 m</a>]]></description>
		</Placemark>
		<Placemark>
			<name><![CDATA[9. Finsteraarhorn (4274 m)]]></name>
			<Point>
				<coordinates>8.12611111111111,46.5372222222222,0</coordinates>
			</Point>
			<Snippet></Snippet>
			<description><![CDATA[<br>Source: Wikipedia article <a href="https://en.wikipedia.org/wiki/List_of_mountains_of_the_Alps_above_3000_m#cite_ref-11">List of mountains of the Alps above 3000 m</a>]]></description>
		</Placemark>
		<Placemark>
			<name><![CDATA[10. Zinalrothorn (4221 m)]]></name>
			<Point>
				<coordinates>7.69027777777778,46.065,0</coordinates>
			</Point>
			<Snippet></Snippet>
			<description><![CDATA[<br>Source: Wikipedia article <a href="https://en.wikipedia.org/wiki/List_of_mountains_of_the_Alps_above_3000_m#cite_ref-11">List of mountains of the Alps above 3000 m</a>]]></description>
		</Placemark>
		<Placemark>
			<name><![CDATA[11. Grandes Jorasses (Pte Walker) (4208 m)]]></name>
			<Point>
				<coordinates>6.98833333333333,45.8691666666667,0</coordinates>
			</Point>
			<Snippet></Snippet>
			<description><![CDATA[<br>Source: Wikipedia article <a href="https://en.wikipedia.org/wiki/List_of_mountains_of_the_Alps_above_3000_m#cite_ref-11">List of mountains of the Alps above 3000 m</a>]]></description>
		</Placemark>
		<Placemark>
			<name><![CDATA[12. Alphubel (4206 m)]]></name>
			<Point>
				<coordinates>7.86388888888889,46.0630555555556,0</coordinates>
			</Point>
			<Snippet></Snippet>
			<description><![CDATA[<br>Source: Wikipedia article <a href="https://en.wikipedia.org/wiki/List_of_mountains_of_the_Alps_above_3000_m#cite_ref-11">List of mountains of the Alps above 3000 m</a>]]></description>
		</Placemark>
		<Placemark>
			<name><![CDATA[13. Rimpfischhorn (4199 m)]]></name>
			<Point>
				<coordinates>7.88416666666667,46.0233333333333,0</coordinates>
			</Point>
			<Snippet></Snippet>
			<description><![CDATA[<br>Source: Wikipedia article <a href="https://en.wikipedia.org/wiki/List_of_mountains_of_the_Alps_above_3000_m#cite_ref-11">List of mountains of the Alps above 3000 m</a>]]></description>
		</Placemark>
		<Placemark>
			<name><![CDATA[14. Aletschhorn (4193 m)]]></name>
			<Point>
				<coordinates>7.99388888888889,46.465,0</coordinates>
			</Point>
			<Snippet></Snippet>
			<description><![CDATA[<br>Source: Wikipedia article <a href="https://en.wikipedia.org/wiki/List_of_mountains_of_the_Alps_above_3000_m#cite_ref-11">List of mountains of the Alps above 3000 m</a>]]></description>
		</Placemark>
		<Placemark>
			<name><![CDATA[15. Strahlhorn (4190 m)]]></name>
			<Point>
				<coordinates>7.90166666666667,46.0133333333333,0</coordinates>
			</Point>
			<Snippet></Snippet>
			<description><![CDATA[<br>Source: Wikipedia article <a href="https://en.wikipedia.org/wiki/List_of_mountains_of_the_Alps_above_3000_m#cite_ref-11">List of mountains of the Alps above 3000 m</a>]]></description>
		</Placemark>
		<Placemark>
			<name><![CDATA[16. Dent d'Hérens (4174 m)]]></name>
			<Point>
				<coordinates>7.60527777777778,45.97,0</coordinates>
			</Point>
			<Snippet></Snippet>
			<description><![CDATA[<br>Source: Wikipedia article <a href="https://en.wikipedia.org/wiki/List_of_mountains_of_the_Alps_above_3000_m#cite_ref-11">List of mountains of the Alps above 3000 m</a>]]></description>
		</Placemark>
		<Placemark>
			<name><![CDATA[17. Breithorn (4164 m)]]></name>
			<Point>
				<coordinates>7.74888888888889,45.9411111111111,0</coordinates>
			</Point>
			<Snippet></Snippet>
			<description><![CDATA[<br>Source: Wikipedia article <a href="https://en.wikipedia.org/wiki/List_of_mountains_of_the_Alps_above_3000_m#cite_ref-11">List of mountains of the Alps above 3000 m</a>]]></description>
		</Placemark>
		<Placemark>
			<name><![CDATA[18. Jungfrau (4158 m)]]></name>
			<Point>
				<coordinates>7.9625,46.5366666666667,0</coordinates>
			</Point>
			<Snippet></Snippet>
			<description><![CDATA[<br>Source: Wikipedia article <a href="https://en.wikipedia.org/wiki/List_of_mountains_of_the_Alps_above_3000_m#cite_ref-11">List of mountains of the Alps above 3000 m</a>]]></description>
		</Placemark>
		<Placemark>
			<name><![CDATA[19. Aig. Verte (4122 m)]]></name>
			<Point>
				<coordinates>6.97027777777778,45.9347222222222,0</coordinates>
			</Point>
			<Snippet></Snippet>
			<description><![CDATA[<br>Source: Wikipedia article <a href="https://en.wikipedia.org/wiki/List_of_mountains_of_the_Alps_above_3000_m#cite_ref-11">List of mountains of the Alps above 3000 m</a>]]></description>
		</Placemark>
		<Placemark>
			<name><![CDATA[20. Mönch (4107 m)]]></name>
			<Point>
				<coordinates>7.99722222222222,46.5583333333333,0</coordinates>
			</Point>
			<Snippet></Snippet>
			<description><![CDATA[<br>Source: Wikipedia article <a href="https://en.wikipedia.org/wiki/List_of_mountains_of_the_Alps_above_3000_m#cite_ref-11">List of mountains of the Alps above 3000 m</a>]]></description>
		</Placemark>
		<Placemark>
			<name><![CDATA[21. Barre des Écrins (4102 m)]]></name>
			<Point>
				<coordinates>6.36,44.9225,0</coordinates>
			</Point>
			<Snippet></Snippet>
			<description><![CDATA[<br>Source: Wikipedia article <a href="https://en.wikipedia.org/wiki/List_of_mountains_of_the_Alps_above_3000_m#cite_ref-11">List of mountains of the Alps above 3000 m</a>]]></description>
		</Placemark>
		<Placemark>
			<name><![CDATA[22. Schreckhorn (4078 m)]]></name>
			<Point>
				<coordinates>8.11805555555556,46.59,0</coordinates>
			</Point>
			<Snippet></Snippet>
			<description><![CDATA[<br>Source: Wikipedia article <a href="https://en.wikipedia.org/wiki/List_of_mountains_of_the_Alps_above_3000_m#cite_ref-11">List of mountains of the Alps above 3000 m</a>]]></description>
		</Placemark>
		<Placemark>
			<name><![CDATA[23. Ober Gabelhorn (4063 m)]]></name>
			<Point>
				<coordinates>7.66805555555556,46.0386111111111,0</coordinates>
			</Point>
			<Snippet></Snippet>
			<description><![CDATA[<br>Source: Wikipedia article <a href="https://en.wikipedia.org/wiki/List_of_mountains_of_the_Alps_above_3000_m#cite_ref-11">List of mountains of the Alps above 3000 m</a>]]></description>
		</Placemark>
		<Placemark>
			<name><![CDATA[24. Gran Paradiso / Grand Paradis (4061 m)]]></name>
			<Point>
				<coordinates>7.26722222222222,45.5180555555556,0</coordinates>
			</Point>
			<Snippet></Snippet>
			<description><![CDATA[<br>Source: Wikipedia article <a href="https://en.wikipedia.org/wiki/List_of_mountains_of_the_Alps_above_3000_m#cite_ref-11">List of mountains of the Alps above 3000 m</a>]]></description>
		</Placemark>
		<Placemark>
			<name><![CDATA[25. Piz Bernina (4049 m)]]></name>
			<Point>
				<coordinates>9.90805555555556,46.3822222222222,0</coordinates>
			</Point>
			<Snippet></Snippet>
			<description><![CDATA[<br>Source: Wikipedia article <a href="https://en.wikipedia.org/wiki/List_of_mountains_of_the_Alps_above_3000_m#cite_ref-11">List of mountains of the Alps above 3000 m</a>]]></description>
		</Placemark>
		<Placemark>
			<name><![CDATA[26. Gross Fiescherhorn (4049 m)]]></name>
			<Point>
				<coordinates>8.06138888888889,46.5513888888889,0</coordinates>
			</Point>
			<Snippet></Snippet>
			<description><![CDATA[<br>Source: Wikipedia article <a href="https://en.wikipedia.org/wiki/List_of_mountains_of_the_Alps_above_3000_m#cite_ref-11">List of mountains of the Alps above 3000 m</a>]]></description>
		</Placemark>
		<Placemark>
			<name><![CDATA[27. Gross Grünhorn (4044 m)]]></name>
			<Point>
				<coordinates>8.07777777777778,46.5319444444444,0</coordinates>
			</Point>
			<Snippet></Snippet>
			<description><![CDATA[<br>Source: Wikipedia article <a href="https://en.wikipedia.org/wiki/List_of_mountains_of_the_Alps_above_3000_m#cite_ref-11">List of mountains of the Alps above 3000 m</a>]]></description>
		</Placemark>
		<Placemark>
			<name><![CDATA[28. Weissmies (4017 m)]]></name>
			<Point>
				<coordinates>8.01222222222222,46.1277777777778,0</coordinates>
			</Point>
			<Snippet></Snippet>
			<description><![CDATA[<br>Source: Wikipedia article <a href="https://en.wikipedia.org/wiki/List_of_mountains_of_the_Alps_above_3000_m#cite_ref-11">List of mountains of the Alps above 3000 m</a>]]></description>
		</Placemark>
		<Placemark>
			<name><![CDATA[29. Lagginhorn (4010 m)]]></name>
			<Point>
				<coordinates>8.00305555555556,46.1572222222222,0</coordinates>
			</Point>
			<Snippet></Snippet>
			<description><![CDATA[<br>Source: Wikipedia article <a href="https://en.wikipedia.org/wiki/List_of_mountains_of_the_Alps_above_3000_m#cite_ref-11">List of mountains of the Alps above 3000 m</a>]]></description>
		</Placemark>
		<Placemark>
			<name><![CDATA[30. Piz Zupò (3996 m)]]></name>
			<Point>
				<coordinates>9.93138888888889,46.3683333333333,0</coordinates>
			</Point>
			<Snippet></Snippet>
			<description><![CDATA[<br>Source: Wikipedia article <a href="https://en.wikipedia.org/wiki/List_of_mountains_of_the_Alps_above_3000_m#cite_ref-11">List of mountains of the Alps above 3000 m</a>]]></description>
		</Placemark>
		<Placemark>
			<name><![CDATA[Fletschhorn (3985 m)]]></name>
			<Point>
				<coordinates>8.00333333333333,46.1680555555556,0</coordinates>
			</Point>
			<Snippet></Snippet>
			<description><![CDATA[<br>Source: Wikipedia article <a href="https://en.wikipedia.org/wiki/List_of_mountains_of_the_Alps_above_3000_m#cite_ref-11">List of mountains of the Alps above 3000 m</a>]]></description>
		</Placemark>
		<Placemark>
			<name><![CDATA[31. Gletscherhorn (3983 m)]]></name>
			<Point>
				<coordinates>7.96777777777778,46.5127777777778,0</coordinates>
			</Point>
			<Snippet></Snippet>
			<description><![CDATA[<br>Source: Wikipedia article <a href="https://en.wikipedia.org/wiki/List_of_mountains_of_the_Alps_above_3000_m#cite_ref-11">List of mountains of the Alps above 3000 m</a>]]></description>
		</Placemark>
		<Placemark>
			<name><![CDATA[32. Meije (3982 m)]]></name>
			<Point>
				<coordinates>6.30861111111111,45.0047222222222,0</coordinates>
			</Point>
			<Snippet></Snippet>
			<description><![CDATA[<br>Source: Wikipedia article <a href="https://en.wikipedia.org/wiki/List_of_mountains_of_the_Alps_above_3000_m#cite_ref-11">List of mountains of the Alps above 3000 m</a>]]></description>
		</Placemark>
		<Placemark>
			<name><![CDATA[33. Eiger (3967 m)]]></name>
			<Point>
				<coordinates>8.00527777777778,46.5775,0</coordinates>
			</Point>
			<Snippet></Snippet>
			<description><![CDATA[<br>Source: Wikipedia article <a href="https://en.wikipedia.org/wiki/List_of_mountains_of_the_Alps_above_3000_m#cite_ref-11">List of mountains of the Alps above 3000 m</a>]]></description>
		</Placemark>
		<Placemark>
			<name><![CDATA[34. Grivola (3969 m)]]></name>
			<Point>
				<coordinates>7.2575,45.5958333333333,0</coordinates>
			</Point>
			<Snippet></Snippet>
			<description><![CDATA[<br>Source: Wikipedia article <a href="https://en.wikipedia.org/wiki/List_of_mountains_of_the_Alps_above_3000_m#cite_ref-11">List of mountains of the Alps above 3000 m</a>]]></description>
		</Placemark>
		<Placemark>
			<name><![CDATA[35. Grand Cornier (3962 m)]]></name>
			<Point>
				<coordinates>7.61138888888889,46.0519444444444,0</coordinates>
			</Point>
			<Snippet></Snippet>
			<description><![CDATA[<br>Source: Wikipedia article <a href="https://en.wikipedia.org/wiki/List_of_mountains_of_the_Alps_above_3000_m#cite_ref-11">List of mountains of the Alps above 3000 m</a>]]></description>
		</Placemark>
		<Placemark>
			<name><![CDATA[36. Ailefroide (3954 m)]]></name>
			<Point>
				<coordinates>6.35638888888889,44.885,0</coordinates>
			</Point>
			<Snippet></Snippet>
			<description><![CDATA[<br>Source: Wikipedia article <a href="https://en.wikipedia.org/wiki/List_of_mountains_of_the_Alps_above_3000_m#cite_ref-11">List of mountains of the Alps above 3000 m</a>]]></description>
		</Placemark>
		<Placemark>
			<name><![CDATA[37. Mont Pelvoux (3943 m)]]></name>
			<Point>
				<coordinates>6.39666666666667,44.8975,0</coordinates>
			</Point>
			<Snippet></Snippet>
			<description><![CDATA[<br>Source: Wikipedia article <a href="https://en.wikipedia.org/wiki/List_of_mountains_of_the_Alps_above_3000_m#cite_ref-11">List of mountains of the Alps above 3000 m</a>]]></description>
		</Placemark>
		<Placemark>
			<name><![CDATA[38. Piz Roseg (3937 m)]]></name>
			<Point>
				<coordinates>9.88305555555556,46.3736111111111,0</coordinates>
			</Point>
			<Snippet></Snippet>
			<description><![CDATA[<br>Source: Wikipedia article <a href="https://en.wikipedia.org/wiki/List_of_mountains_of_the_Alps_above_3000_m#cite_ref-11">List of mountains of the Alps above 3000 m</a>]]></description>
		</Placemark>
		<Placemark>
			<name><![CDATA[39. Bietschhorn (3934 m)]]></name>
			<Point>
				<coordinates>7.85083333333333,46.3916666666667,0</coordinates>
			</Point>
			<Snippet></Snippet>
			<description><![CDATA[<br>Source: Wikipedia article <a href="https://en.wikipedia.org/wiki/List_of_mountains_of_the_Alps_above_3000_m#cite_ref-11">List of mountains of the Alps above 3000 m</a>]]></description>
		</Placemark>
		<Placemark>
			<name><![CDATA[40. Trugberg (3933 m)]]></name>
			<Point>
				<coordinates>8.01527777777778,46.5466666666667,0</coordinates>
			</Point>
			<Snippet></Snippet>
			<description><![CDATA[<br>Source: Wikipedia article <a href="https://en.wikipedia.org/wiki/List_of_mountains_of_the_Alps_above_3000_m#cite_ref-11">List of mountains of the Alps above 3000 m</a>]]></description>
		</Placemark>
		<Placemark>
			<name><![CDATA[41. Aig. de Tré la Tête (3923 m)]]></name>
			<Point>
				<coordinates>6.815,45.7947222222222,0</coordinates>
			</Point>
			<Snippet></Snippet>
			<description><![CDATA[<br>Source: Wikipedia article <a href="https://en.wikipedia.org/wiki/List_of_mountains_of_the_Alps_above_3000_m#cite_ref-11">List of mountains of the Alps above 3000 m</a>]]></description>
		</Placemark>
		<Placemark>
			<name><![CDATA[42. Pic Sans Nom (3913 m)]]></name>
			<Point>
				<coordinates>6.38388888888889,44.8933333333333,0</coordinates>
			</Point>
			<Snippet></Snippet>
			<description><![CDATA[<br>Source: Wikipedia article <a href="https://en.wikipedia.org/wiki/List_of_mountains_of_the_Alps_above_3000_m#cite_ref-11">List of mountains of the Alps above 3000 m</a>]]></description>
		</Placemark>
		<Placemark>
			<name><![CDATA[43. Gross Wannenhorn (3906 m)]]></name>
			<Point>
				<coordinates>8.09694444444444,46.4938888888889,0</coordinates>
			</Point>
			<Snippet></Snippet>
			<description><![CDATA[<br>Source: Wikipedia article <a href="https://en.wikipedia.org/wiki/List_of_mountains_of_the_Alps_above_3000_m#cite_ref-11">List of mountains of the Alps above 3000 m</a>]]></description>
		</Placemark>
		<Placemark>
			<name><![CDATA[44. Ortler (3905 m)]]></name>
			<Point>
				<coordinates>10.5447222222222,46.5088888888889,0</coordinates>
			</Point>
			<Snippet></Snippet>
			<description><![CDATA[<br>Source: Wikipedia article <a href="https://en.wikipedia.org/wiki/List_of_mountains_of_the_Alps_above_3000_m#cite_ref-11">List of mountains of the Alps above 3000 m</a>]]></description>
		</Placemark>
		<Placemark>
			<name><![CDATA[45. Aig. d'Argentière (3901 m)]]></name>
			<Point>
				<coordinates>7.02,45.96,0</coordinates>
			</Point>
			<Snippet></Snippet>
			<description><![CDATA[<br>Source: Wikipedia article <a href="https://en.wikipedia.org/wiki/List_of_mountains_of_the_Alps_above_3000_m#cite_ref-11">List of mountains of the Alps above 3000 m</a>]]></description>
		</Placemark>
		<Placemark>
			<name><![CDATA[46. Ruinette (3875 m)]]></name>
			<Point>
				<coordinates>7.40027777777778,45.9791666666667,0</coordinates>
			</Point>
			<Snippet></Snippet>
			<description><![CDATA[<br>Source: Wikipedia article <a href="https://en.wikipedia.org/wiki/List_of_mountains_of_the_Alps_above_3000_m#cite_ref-11">List of mountains of the Alps above 3000 m</a>]]></description>
		</Placemark>
		<Placemark>
			<name><![CDATA[47. Aig. de Triolet (3870 m)]]></name>
			<Point>
				<coordinates>7.02444444444444,45.9166666666667,0</coordinates>
			</Point>
			<Snippet></Snippet>
			<description><![CDATA[<br>Source: Wikipedia article <a href="https://en.wikipedia.org/wiki/List_of_mountains_of_the_Alps_above_3000_m#cite_ref-11">List of mountains of the Alps above 3000 m</a>]]></description>
		</Placemark>
		<Placemark>
			<name><![CDATA[48. Grande Casse (3855 m)]]></name>
			<Point>
				<coordinates>6.82777777777778,45.4052777777778,0</coordinates>
			</Point>
			<Snippet></Snippet>
			<description><![CDATA[<br>Source: Wikipedia article <a href="https://en.wikipedia.org/wiki/List_of_mountains_of_the_Alps_above_3000_m#cite_ref-11">List of mountains of the Alps above 3000 m</a>]]></description>
		</Placemark>
		<Placemark>
			<name><![CDATA[49. Königspitze / Gran Zebrù (3851 m)]]></name>
			<Point>
				<coordinates>10.5683333333333,46.4786111111111,0</coordinates>
			</Point>
			<Snippet></Snippet>
			<description><![CDATA[<br>Source: Wikipedia article <a href="https://en.wikipedia.org/wiki/List_of_mountains_of_the_Alps_above_3000_m#cite_ref-11">List of mountains of the Alps above 3000 m</a>]]></description>
		</Placemark>
		<Placemark>
			<name><![CDATA[50. Aig. du Midi (3842 m)]]></name>
			<Point>
				<coordinates>6.8875,45.8786111111111,0</coordinates>
			</Point>
			<Snippet></Snippet>
			<description><![CDATA[<br>Source: Wikipedia article <a href="https://en.wikipedia.org/wiki/List_of_mountains_of_the_Alps_above_3000_m#cite_ref-11">List of mountains of the Alps above 3000 m</a>]]></description>
		</Placemark>
		<Placemark>
			<name><![CDATA[51. Monviso / Monte Viso / Vísol (3841 m)]]></name>
			<Point>
				<coordinates>7.09083333333333,44.6675,0</coordinates>
			</Point>
			<Snippet></Snippet>
			<description><![CDATA[<br>Source: Wikipedia article <a href="https://en.wikipedia.org/wiki/List_of_mountains_of_the_Alps_above_3000_m#cite_ref-11">List of mountains of the Alps above 3000 m</a>]]></description>
		</Placemark>
		<Placemark>
			<name><![CDATA[52. Bouquetins (3838 m)]]></name>
			<Point>
				<coordinates>7.54527777777778,45.9822222222222,0</coordinates>
			</Point>
			<Snippet></Snippet>
			<description><![CDATA[<br>Source: Wikipedia article <a href="https://en.wikipedia.org/wiki/List_of_mountains_of_the_Alps_above_3000_m#cite_ref-11">List of mountains of the Alps above 3000 m</a>]]></description>
		</Placemark>
		<Placemark>
			<name><![CDATA[53. Tour Noir (3837 m)]]></name>
			<Point>
				<coordinates>7.0375,45.9488888888889,0</coordinates>
			</Point>
			<Snippet></Snippet>
			<description><![CDATA[<br>Source: Wikipedia article <a href="https://en.wikipedia.org/wiki/List_of_mountains_of_the_Alps_above_3000_m#cite_ref-11">List of mountains of the Alps above 3000 m</a>]]></description>
		</Placemark>
		<Placemark>
			<name><![CDATA[Brunegghorn (3833 m)]]></name>
			<Point>
				<coordinates>7.74555555555556,46.1258333333333,0</coordinates>
			</Point>
			<Snippet></Snippet>
			<description><![CDATA[<br>Source: Wikipedia article <a href="https://en.wikipedia.org/wiki/List_of_mountains_of_the_Alps_above_3000_m#cite_ref-11">List of mountains of the Alps above 3000 m</a>]]></description>
		</Placemark>
		<Placemark>
			<name><![CDATA[54. Aig. du Chardonnet (3824 m)]]></name>
			<Point>
				<coordinates>7.00111111111111,45.9688888888889,0</coordinates>
			</Point>
			<Snippet></Snippet>
			<description><![CDATA[<br>Source: Wikipedia article <a href="https://en.wikipedia.org/wiki/List_of_mountains_of_the_Alps_above_3000_m#cite_ref-11">List of mountains of the Alps above 3000 m</a>]]></description>
		</Placemark>
		<Placemark>
			<name><![CDATA[55. Nesthorn (3821 m)]]></name>
			<Point>
				<coordinates>7.92611111111111,46.4133333333333,0</coordinates>
			</Point>
			<Snippet></Snippet>
			<description><![CDATA[<br>Source: Wikipedia article <a href="https://en.wikipedia.org/wiki/List_of_mountains_of_the_Alps_above_3000_m#cite_ref-11">List of mountains of the Alps above 3000 m</a>]]></description>
		</Placemark>
		<Placemark>
			<name><![CDATA[56. Mont Dolent (3820 m)]]></name>
			<Point>
				<coordinates>7.04611111111111,45.9225,0</coordinates>
			</Point>
			<Snippet></Snippet>
			<description><![CDATA[<br>Source: Wikipedia article <a href="https://en.wikipedia.org/wiki/List_of_mountains_of_the_Alps_above_3000_m#cite_ref-11">List of mountains of the Alps above 3000 m</a>]]></description>
		</Placemark>
		<Placemark>
			<name><![CDATA[57. Aig. des Glaciers (3816 m)]]></name>
			<Point>
				<coordinates>6.8025,45.7786111111111,0</coordinates>
			</Point>
			<Snippet></Snippet>
			<description><![CDATA[<br>Source: Wikipedia article <a href="https://en.wikipedia.org/wiki/List_of_mountains_of_the_Alps_above_3000_m#cite_ref-11">List of mountains of the Alps above 3000 m</a>]]></description>
		</Placemark>
		<Placemark>
			<name><![CDATA[58. Le Râteau (3809 m)]]></name>
			<Point>
				<coordinates>6.28305555555556,45.0008333333333,0</coordinates>
			</Point>
			<Snippet></Snippet>
			<description><![CDATA[<br>Source: Wikipedia article <a href="https://en.wikipedia.org/wiki/List_of_mountains_of_the_Alps_above_3000_m#cite_ref-11">List of mountains of the Alps above 3000 m</a>]]></description>
		</Placemark>
		<Placemark>
			<name><![CDATA[59. Großglockner (3798 m)]]></name>
			<Point>
				<coordinates>12.6944444444444,47.0741666666667,0</coordinates>
			</Point>
			<Snippet></Snippet>
			<description><![CDATA[<br>Source: Wikipedia article <a href="https://en.wikipedia.org/wiki/List_of_mountains_of_the_Alps_above_3000_m#cite_ref-11">List of mountains of the Alps above 3000 m</a>]]></description>
		</Placemark>
		<Placemark>
			<name><![CDATA[60. Schinhorn (3797 m)]]></name>
			<Point>
				<coordinates>7.94666666666667,46.4516666666667,0</coordinates>
			</Point>
			<Snippet></Snippet>
			<description><![CDATA[<br>Source: Wikipedia article <a href="https://en.wikipedia.org/wiki/List_of_mountains_of_the_Alps_above_3000_m#cite_ref-11">List of mountains of the Alps above 3000 m</a>]]></description>
		</Placemark>
		<Placemark>
			<name><![CDATA[61. Pte de Zinal (3789 m)]]></name>
			<Point>
				<coordinates>7.63055555555556,46.0269444444444,0</coordinates>
			</Point>
			<Snippet></Snippet>
			<description><![CDATA[<br>Source: Wikipedia article <a href="https://en.wikipedia.org/wiki/List_of_mountains_of_the_Alps_above_3000_m#cite_ref-11">List of mountains of the Alps above 3000 m</a>]]></description>
		</Placemark>
		<Placemark>
			<name><![CDATA[62. Lauterbrunnen Breithorn (3780 m)]]></name>
			<Point>
				<coordinates>7.87666666666667,46.4786111111111,0</coordinates>
			</Point>
			<Snippet></Snippet>
			<description><![CDATA[<br>Source: Wikipedia article <a href="https://en.wikipedia.org/wiki/List_of_mountains_of_the_Alps_above_3000_m#cite_ref-11">List of mountains of the Alps above 3000 m</a>]]></description>
		</Placemark>
		<Placemark>
			<name><![CDATA[63. Mont Pourri (3779 m)]]></name>
			<Point>
				<coordinates>6.86027777777778,45.5280555555556,0</coordinates>
			</Point>
			<Snippet></Snippet>
			<description><![CDATA[<br>Source: Wikipedia article <a href="https://en.wikipedia.org/wiki/List_of_mountains_of_the_Alps_above_3000_m#cite_ref-11">List of mountains of the Alps above 3000 m</a>]]></description>
		</Placemark>
		<Placemark>
			<name><![CDATA[64. Aig. Noire de Peuterey (3774 m)]]></name>
			<Point>
				<coordinates>6.89305555555555,45.8152777777778,0</coordinates>
			</Point>
			<Snippet></Snippet>
			<description><![CDATA[<br>Source: Wikipedia article <a href="https://en.wikipedia.org/wiki/List_of_mountains_of_the_Alps_above_3000_m#cite_ref-11">List of mountains of the Alps above 3000 m</a>]]></description>
		</Placemark>
		<Placemark>
			<name><![CDATA[65. Wildspitze (3770 m)]]></name>
			<Point>
				<coordinates>10.8672222222222,46.8852777777778,0</coordinates>
			</Point>
			<Snippet></Snippet>
			<description><![CDATA[<br>Source: Wikipedia article <a href="https://en.wikipedia.org/wiki/List_of_mountains_of_the_Alps_above_3000_m#cite_ref-11">List of mountains of the Alps above 3000 m</a>]]></description>
		</Placemark>
		<Placemark>
			<name><![CDATA[66. Monte Cevedale (3769 m)]]></name>
			<Point>
				<coordinates>10.6166666666667,46.4438888888889,0</coordinates>
			</Point>
			<Snippet></Snippet>
			<description><![CDATA[<br>Source: Wikipedia article <a href="https://en.wikipedia.org/wiki/List_of_mountains_of_the_Alps_above_3000_m#cite_ref-11">List of mountains of the Alps above 3000 m</a>]]></description>
		</Placemark>
		<Placemark>
			<name><![CDATA[67. Grande Ruine (3765 m)]]></name>
			<Point>
				<coordinates>6.32972222222222,44.9677777777778,0</coordinates>
			</Point>
			<Snippet></Snippet>
			<description><![CDATA[<br>Source: Wikipedia article <a href="https://en.wikipedia.org/wiki/List_of_mountains_of_the_Alps_above_3000_m#cite_ref-11">List of mountains of the Alps above 3000 m</a>]]></description>
		</Placemark>
		<Placemark>
			<name><![CDATA[68. Aig. de Leschaux (3759 m)]]></name>
			<Point>
				<coordinates>7.00694444444444,45.8875,0</coordinates>
			</Point>
			<Snippet></Snippet>
			<description><![CDATA[<br>Source: Wikipedia article <a href="https://en.wikipedia.org/wiki/List_of_mountains_of_the_Alps_above_3000_m#cite_ref-11">List of mountains of the Alps above 3000 m</a>]]></description>
		</Placemark>
		<Placemark>
			<name><![CDATA[69. Pte de Charbonnel (3752 m)]]></name>
			<Point>
				<coordinates>7.055,45.2802777777778,0</coordinates>
			</Point>
			<Snippet></Snippet>
			<description><![CDATA[<br>Source: Wikipedia article <a href="https://en.wikipedia.org/wiki/List_of_mountains_of_the_Alps_above_3000_m#cite_ref-11">List of mountains of the Alps above 3000 m</a>]]></description>
		</Placemark>
		<Placemark>
			<name><![CDATA[70. Piz Morteratsch (3751 m)]]></name>
			<Point>
				<coordinates>9.90166666666667,46.4027777777778,0</coordinates>
			</Point>
			<Snippet></Snippet>
			<description><![CDATA[<br>Source: Wikipedia article <a href="https://en.wikipedia.org/wiki/List_of_mountains_of_the_Alps_above_3000_m#cite_ref-11">List of mountains of the Alps above 3000 m</a>]]></description>
		</Placemark>
		<Placemark>
			<name><![CDATA[71. Aig. de la Grande Sassière  (3747 m)]]></name>
			<Point>
				<coordinates>7,45.505,0</coordinates>
			</Point>
			<Snippet></Snippet>
			<description><![CDATA[<br>Source: Wikipedia article <a href="https://en.wikipedia.org/wiki/List_of_mountains_of_the_Alps_above_3000_m#cite_ref-11">List of mountains of the Alps above 3000 m</a>]]></description>
		</Placemark>
		<Placemark>
			<name><![CDATA[72. Weißkugel (3739 m)]]></name>
			<Point>
				<coordinates>10.7263888888889,46.7977777777778,0</coordinates>
			</Point>
			<Snippet></Snippet>
			<description><![CDATA[<br>Source: Wikipedia article <a href="https://en.wikipedia.org/wiki/List_of_mountains_of_the_Alps_above_3000_m#cite_ref-11">List of mountains of the Alps above 3000 m</a>]]></description>
		</Placemark>
		<Placemark>
			<name><![CDATA[73. Roche Faurio (3730 m)]]></name>
			<Point>
				<coordinates>6.35805555555556,44.9419444444444,0</coordinates>
			</Point>
			<Snippet></Snippet>
			<description><![CDATA[<br>Source: Wikipedia article <a href="https://en.wikipedia.org/wiki/List_of_mountains_of_the_Alps_above_3000_m#cite_ref-11">List of mountains of the Alps above 3000 m</a>]]></description>
		</Placemark>
		<Placemark>
			<name><![CDATA[74. Mont Vélan (3726 m)]]></name>
			<Point>
				<coordinates>7.25166666666667,45.8916666666667,0</coordinates>
			</Point>
			<Snippet></Snippet>
			<description><![CDATA[<br>Source: Wikipedia article <a href="https://en.wikipedia.org/wiki/List_of_mountains_of_the_Alps_above_3000_m#cite_ref-11">List of mountains of the Alps above 3000 m</a>]]></description>
		</Placemark>
		<Placemark>
			<name><![CDATA[75. Evêque (3716 m)]]></name>
			<Point>
				<coordinates>7.50277777777778,45.9644444444444,0</coordinates>
			</Point>
			<Snippet></Snippet>
			<description><![CDATA[<br>Source: Wikipedia article <a href="https://en.wikipedia.org/wiki/List_of_mountains_of_the_Alps_above_3000_m#cite_ref-11">List of mountains of the Alps above 3000 m</a>]]></description>
		</Placemark>
		<Placemark>
			<name><![CDATA[76. Combin de Corbassière  (3716 m)]]></name>
			<Point>
				<coordinates>7.28055555555556,45.9780555555556,0</coordinates>
			</Point>
			<Snippet></Snippet>
			<description><![CDATA[<br>Source: Wikipedia article <a href="https://en.wikipedia.org/wiki/List_of_mountains_of_the_Alps_above_3000_m#cite_ref-11">List of mountains of the Alps above 3000 m</a>]]></description>
		</Placemark>
		<Placemark>
			<name><![CDATA[77. La Singla (3714 m)]]></name>
			<Point>
				<coordinates>7.47194444444444,45.9458333333333,0</coordinates>
			</Point>
			<Snippet></Snippet>
			<description><![CDATA[<br>Source: Wikipedia article <a href="https://en.wikipedia.org/wiki/List_of_mountains_of_the_Alps_above_3000_m#cite_ref-11">List of mountains of the Alps above 3000 m</a>]]></description>
		</Placemark>
		<Placemark>
			<name><![CDATA[78. Wetterhörner (Mittelhorn) (3704 m)]]></name>
			<Point>
				<coordinates>8.12472222222222,46.6352777777778,0</coordinates>
			</Point>
			<Snippet></Snippet>
			<description><![CDATA[<br>Source: Wikipedia article <a href="https://en.wikipedia.org/wiki/List_of_mountains_of_the_Alps_above_3000_m#cite_ref-11">List of mountains of the Alps above 3000 m</a>]]></description>
		</Placemark>
		<Placemark>
			<name><![CDATA[79. Le Pleureur (3704 m)]]></name>
			<Point>
				<coordinates>7.36916666666667,46.0163888888889,0</coordinates>
			</Point>
			<Snippet></Snippet>
			<description><![CDATA[<br>Source: Wikipedia article <a href="https://en.wikipedia.org/wiki/List_of_mountains_of_the_Alps_above_3000_m#cite_ref-11">List of mountains of the Alps above 3000 m</a>]]></description>
		</Placemark>
		<Placemark>
			<name><![CDATA[80. Balmhorn (3698 m)]]></name>
			<Point>
				<coordinates>7.69361111111111,46.425,0</coordinates>
			</Point>
			<Snippet></Snippet>
			<description><![CDATA[<br>Source: Wikipedia article <a href="https://en.wikipedia.org/wiki/List_of_mountains_of_the_Alps_above_3000_m#cite_ref-11">List of mountains of the Alps above 3000 m</a>]]></description>
		</Placemark>
		<Placemark>
			<name><![CDATA[81. Dent Parrachée (3697 m)]]></name>
			<Point>
				<coordinates>6.75638888888889,45.2891666666667,0</coordinates>
			</Point>
			<Snippet></Snippet>
			<description><![CDATA[<br>Source: Wikipedia article <a href="https://en.wikipedia.org/wiki/List_of_mountains_of_the_Alps_above_3000_m#cite_ref-11">List of mountains of the Alps above 3000 m</a>]]></description>
		</Placemark>
		<Placemark>
			<name><![CDATA[82. Torre del Gran San Pietro / Tour du Grand-Saint-Pierre (3692 m)]]></name>
			<Point>
				<coordinates>7.35888888888889,45.5258333333333,0</coordinates>
			</Point>
			<Snippet></Snippet>
			<description><![CDATA[<br>Source: Wikipedia article <a href="https://en.wikipedia.org/wiki/List_of_mountains_of_the_Alps_above_3000_m#cite_ref-11">List of mountains of the Alps above 3000 m</a>]]></description>
		</Placemark>
		<Placemark>
			<name><![CDATA[83. Monte Disgrazia (3678 m)]]></name>
			<Point>
				<coordinates>9.74944444444444,46.2691666666667,0</coordinates>
			</Point>
			<Snippet></Snippet>
			<description><![CDATA[<br>Source: Wikipedia article <a href="https://en.wikipedia.org/wiki/List_of_mountains_of_the_Alps_above_3000_m#cite_ref-11">List of mountains of the Alps above 3000 m</a>]]></description>
		</Placemark>
		<Placemark>
			<name><![CDATA[84. Pta San Matteo (3678 m)]]></name>
			<Point>
				<coordinates>10.5672222222222,46.3777777777778,0</coordinates>
			</Point>
			<Snippet></Snippet>
			<description><![CDATA[<br>Source: Wikipedia article <a href="https://en.wikipedia.org/wiki/List_of_mountains_of_the_Alps_above_3000_m#cite_ref-11">List of mountains of the Alps above 3000 m</a>]]></description>
		</Placemark>
		<Placemark>
			<name><![CDATA[85. Uia di Ciamarella (3676 m)]]></name>
			<Point>
				<coordinates>7.14527777777778,45.3286111111111,0</coordinates>
			</Point>
			<Snippet></Snippet>
			<description><![CDATA[<br>Source: Wikipedia article <a href="https://en.wikipedia.org/wiki/List_of_mountains_of_the_Alps_above_3000_m#cite_ref-11">List of mountains of the Alps above 3000 m</a>]]></description>
		</Placemark>
		<Placemark>
			<name><![CDATA[86. Dent de Perroc (3676 m)]]></name>
			<Point>
				<coordinates>7.52305555555556,46.0394444444444,0</coordinates>
			</Point>
			<Snippet></Snippet>
			<description><![CDATA[<br>Source: Wikipedia article <a href="https://en.wikipedia.org/wiki/List_of_mountains_of_the_Alps_above_3000_m#cite_ref-11">List of mountains of the Alps above 3000 m</a>]]></description>
		</Placemark>
		<Placemark>
			<name><![CDATA[87. Dômes de Miage (3673 m)]]></name>
			<Point>
				<coordinates>6.80027777777778,45.8155555555556,0</coordinates>
			</Point>
			<Snippet></Snippet>
			<description><![CDATA[<br>Source: Wikipedia article <a href="https://en.wikipedia.org/wiki/List_of_mountains_of_the_Alps_above_3000_m#cite_ref-11">List of mountains of the Alps above 3000 m</a>]]></description>
		</Placemark>
		<Placemark>
			<name><![CDATA[88. Les Bans (3669 m)]]></name>
			<Point>
				<coordinates>6.33666666666667,44.8486111111111,0</coordinates>
			</Point>
			<Snippet></Snippet>
			<description><![CDATA[<br>Source: Wikipedia article <a href="https://en.wikipedia.org/wiki/List_of_mountains_of_the_Alps_above_3000_m#cite_ref-11">List of mountains of the Alps above 3000 m</a>]]></description>
		</Placemark>
		<Placemark>
			<name><![CDATA[89. Großvenediger (3666 m)]]></name>
			<Point>
				<coordinates>12.3463888888889,47.1091666666667,0</coordinates>
			</Point>
			<Snippet></Snippet>
			<description><![CDATA[<br>Source: Wikipedia article <a href="https://en.wikipedia.org/wiki/List_of_mountains_of_the_Alps_above_3000_m#cite_ref-11">List of mountains of the Alps above 3000 m</a>]]></description>
		</Placemark>
		<Placemark>
			<name><![CDATA[90. Montagne des Agneaux (3664 m)]]></name>
			<Point>
				<coordinates>6.43055555555556,44.9502777777778,0</coordinates>
			</Point>
			<Snippet></Snippet>
			<description><![CDATA[<br>Source: Wikipedia article <a href="https://en.wikipedia.org/wiki/List_of_mountains_of_the_Alps_above_3000_m#cite_ref-11">List of mountains of the Alps above 3000 m</a>]]></description>
		</Placemark>
		<Placemark>
			<name><![CDATA[91. Blüemlisalphorn (3661 m)]]></name>
			<Point>
				<coordinates>7.7725,46.4888888888889,0</coordinates>
			</Point>
			<Snippet></Snippet>
			<description><![CDATA[<br>Source: Wikipedia article <a href="https://en.wikipedia.org/wiki/List_of_mountains_of_the_Alps_above_3000_m#cite_ref-11">List of mountains of the Alps above 3000 m</a>]]></description>
		</Placemark>
		<Placemark>
			<name><![CDATA[92. Portjengrat: Pizzo d'Andolla (3654 m)]]></name>
			<Point>
				<coordinates>8.03472222222222,46.1008333333333,0</coordinates>
			</Point>
			<Snippet></Snippet>
			<description><![CDATA[<br>Source: Wikipedia article <a href="https://en.wikipedia.org/wiki/List_of_mountains_of_the_Alps_above_3000_m#cite_ref-11">List of mountains of the Alps above 3000 m</a>]]></description>
		</Placemark>
		<Placemark>
			<name><![CDATA[93. Grande Motte (3653 m)]]></name>
			<Point>
				<coordinates>6.87027777777778,45.4113888888889,0</coordinates>
			</Point>
			<Snippet></Snippet>
			<description><![CDATA[<br>Source: Wikipedia article <a href="https://en.wikipedia.org/wiki/List_of_mountains_of_the_Alps_above_3000_m#cite_ref-11">List of mountains of the Alps above 3000 m</a>]]></description>
		</Placemark>
		<Placemark>
			<name><![CDATA[Thurwieserspitze (3652 m)]]></name>
			<Point>
				<coordinates>10.5252777777778,46.4952777777778,0</coordinates>
			</Point>
			<Snippet></Snippet>
			<description><![CDATA[<br>Source: Wikipedia article <a href="https://en.wikipedia.org/wiki/List_of_mountains_of_the_Alps_above_3000_m#cite_ref-11">List of mountains of the Alps above 3000 m</a>]]></description>
		</Placemark>
		<Placemark>
			<name><![CDATA[94. Aigs Rouges d'Arolla (3644 m)]]></name>
			<Point>
				<coordinates>7.43361111111111,46.0552777777778,0</coordinates>
			</Point>
			<Snippet></Snippet>
			<description><![CDATA[<br>Source: Wikipedia article <a href="https://en.wikipedia.org/wiki/List_of_mountains_of_the_Alps_above_3000_m#cite_ref-11">List of mountains of the Alps above 3000 m</a>]]></description>
		</Placemark>
		<Placemark>
			<name><![CDATA[95. Ciarforon / Charforon (3640 m)]]></name>
			<Point>
				<coordinates>7.24722222222222,45.4933333333333,0</coordinates>
			</Point>
			<Snippet></Snippet>
			<description><![CDATA[<br>Source: Wikipedia article <a href="https://en.wikipedia.org/wiki/List_of_mountains_of_the_Alps_above_3000_m#cite_ref-11">List of mountains of the Alps above 3000 m</a>]]></description>
		</Placemark>
		<Placemark>
			<name><![CDATA[96. Doldenhorn (3638 m)]]></name>
			<Point>
				<coordinates>7.73472222222222,46.4688888888889,0</coordinates>
			</Point>
			<Snippet></Snippet>
			<description><![CDATA[<br>Source: Wikipedia article <a href="https://en.wikipedia.org/wiki/List_of_mountains_of_the_Alps_above_3000_m#cite_ref-11">List of mountains of the Alps above 3000 m</a>]]></description>
		</Placemark>
		<Placemark>
			<name><![CDATA[97. Albaron (3637 m)]]></name>
			<Point>
				<coordinates>7.10277777777778,45.3325,0</coordinates>
			</Point>
			<Snippet></Snippet>
			<description><![CDATA[<br>Source: Wikipedia article <a href="https://en.wikipedia.org/wiki/List_of_mountains_of_the_Alps_above_3000_m#cite_ref-11">List of mountains of the Alps above 3000 m</a>]]></description>
		</Placemark>
		<Placemark>
			<name><![CDATA[98. Dammastock (3630 m)]]></name>
			<Point>
				<coordinates>8.42111111111111,46.6433333333333,0</coordinates>
			</Point>
			<Snippet></Snippet>
			<description><![CDATA[<br>Source: Wikipedia article <a href="https://en.wikipedia.org/wiki/List_of_mountains_of_the_Alps_above_3000_m#cite_ref-11">List of mountains of the Alps above 3000 m</a>]]></description>
		</Placemark>
		<Placemark>
			<name><![CDATA[99. Hintere Schwärze  (3628 m)]]></name>
			<Point>
				<coordinates>10.9147222222222,46.7733333333333,0</coordinates>
			</Point>
			<Snippet></Snippet>
			<description><![CDATA[<br>Source: Wikipedia article <a href="https://en.wikipedia.org/wiki/List_of_mountains_of_the_Alps_above_3000_m#cite_ref-12">List of mountains of the Alps above 3000 m</a>]]></description>
		</Placemark>
		<Placemark>
			<name><![CDATA[100. Levanna Centrale (3619 m)]]></name>
			<Point>
				<coordinates>7.17194444444444,45.4102777777778,0</coordinates>
			</Point>
			<Snippet></Snippet>
			<description><![CDATA[<br>Source: Wikipedia article <a href="https://en.wikipedia.org/wiki/List_of_mountains_of_the_Alps_above_3000_m#cite_ref-12">List of mountains of the Alps above 3000 m</a>]]></description>
		</Placemark>
		<Placemark>
			<name><![CDATA[101. Tödi (Piz Russein) (3614 m)]]></name>
			<Point>
				<coordinates>8.91472222222222,46.8111111111111,0</coordinates>
			</Point>
			<Snippet></Snippet>
			<description><![CDATA[<br>Source: Wikipedia article <a href="https://en.wikipedia.org/wiki/List_of_mountains_of_the_Alps_above_3000_m#cite_ref-12">List of mountains of the Alps above 3000 m</a>]]></description>
		</Placemark>
		<Placemark>
			<name><![CDATA[102. Pte de Ronce (3612 m)]]></name>
			<Point>
				<coordinates>6.97861111111111,45.2644444444444,0</coordinates>
			</Point>
			<Snippet></Snippet>
			<description><![CDATA[<br>Source: Wikipedia article <a href="https://en.wikipedia.org/wiki/List_of_mountains_of_the_Alps_above_3000_m#cite_ref-12">List of mountains of the Alps above 3000 m</a>]]></description>
		</Placemark>
		<Placemark>
			<name><![CDATA[103. Les Diablons (3609 m)]]></name>
			<Point>
				<coordinates>7.67111111111111,46.1425,0</coordinates>
			</Point>
			<Snippet></Snippet>
			<description><![CDATA[<br>Source: Wikipedia article <a href="https://en.wikipedia.org/wiki/List_of_mountains_of_the_Alps_above_3000_m#cite_ref-12">List of mountains of the Alps above 3000 m</a>]]></description>
		</Placemark>
		<Placemark>
			<name><![CDATA[104. Grande Rousse / Bec de l'Invergnan (3607 m)]]></name>
			<Point>
				<coordinates>7.08444444444444,45.5633333333333,0</coordinates>
			</Point>
			<Snippet></Snippet>
			<description><![CDATA[<br>Source: Wikipedia article <a href="https://en.wikipedia.org/wiki/List_of_mountains_of_the_Alps_above_3000_m#cite_ref-12">List of mountains of the Alps above 3000 m</a>]]></description>
		</Placemark>
		<Placemark>
			<name><![CDATA[105. Tsanteleina (3602 m)]]></name>
			<Point>
				<coordinates>7.04611111111111,45.4794444444444,0</coordinates>
			</Point>
			<Snippet></Snippet>
			<description><![CDATA[<br>Source: Wikipedia article <a href="https://en.wikipedia.org/wiki/List_of_mountains_of_the_Alps_above_3000_m#cite_ref-12">List of mountains of the Alps above 3000 m</a>]]></description>
		</Placemark>
		<Placemark>
			<name><![CDATA[106. Aig. du Plat de la Selle (3596 m)]]></name>
			<Point>
				<coordinates>6.22333333333333,44.9644444444444,0</coordinates>
			</Point>
			<Snippet></Snippet>
			<description><![CDATA[<br>Source: Wikipedia article <a href="https://en.wikipedia.org/wiki/List_of_mountains_of_the_Alps_above_3000_m#cite_ref-12">List of mountains of the Alps above 3000 m</a>]]></description>
		</Placemark>
		<Placemark>
			<name><![CDATA[107. Piz Glüschaint (3594 m)]]></name>
			<Point>
				<coordinates>9.84,46.3625,0</coordinates>
			</Point>
			<Snippet></Snippet>
			<description><![CDATA[<br>Source: Wikipedia article <a href="https://en.wikipedia.org/wiki/List_of_mountains_of_the_Alps_above_3000_m#cite_ref-12">List of mountains of the Alps above 3000 m</a>]]></description>
		</Placemark>
		<Placemark>
			<name><![CDATA[108. Bessanèse (3592 m)]]></name>
			<Point>
				<coordinates>7.11944444444444,45.3022222222222,0</coordinates>
			</Point>
			<Snippet></Snippet>
			<description><![CDATA[<br>Source: Wikipedia article <a href="https://en.wikipedia.org/wiki/List_of_mountains_of_the_Alps_above_3000_m#cite_ref-12">List of mountains of the Alps above 3000 m</a>]]></description>
		</Placemark>
		<Placemark>
			<name><![CDATA[109. Les Rouies (3589 m)]]></name>
			<Point>
				<coordinates>6.25861111111111,44.8644444444444,0</coordinates>
			</Point>
			<Snippet></Snippet>
			<description><![CDATA[<br>Source: Wikipedia article <a href="https://en.wikipedia.org/wiki/List_of_mountains_of_the_Alps_above_3000_m#cite_ref-12">List of mountains of the Alps above 3000 m</a>]]></description>
		</Placemark>
		<Placemark>
			<name><![CDATA[110. Grand Roc Noir (3582 m)]]></name>
			<Point>
				<coordinates>6.89194444444444,45.3302777777778,0</coordinates>
			</Point>
			<Snippet></Snippet>
			<description><![CDATA[<br>Source: Wikipedia article <a href="https://en.wikipedia.org/wiki/List_of_mountains_of_the_Alps_above_3000_m#cite_ref-12">List of mountains of the Alps above 3000 m</a>]]></description>
		</Placemark>
		<Placemark>
			<name><![CDATA[111. Mont Brulé (3578 m)]]></name>
			<Point>
				<coordinates>7.53833333333333,45.955,0</coordinates>
			</Point>
			<Snippet></Snippet>
			<description><![CDATA[<br>Source: Wikipedia article <a href="https://en.wikipedia.org/wiki/List_of_mountains_of_the_Alps_above_3000_m#cite_ref-12">List of mountains of the Alps above 3000 m</a>]]></description>
		</Placemark>
		<Placemark>
			<name><![CDATA[112. Croix Rousse / Croce Rossa (3571 m)]]></name>
			<Point>
				<coordinates>7.13472222222222,45.2605555555556,0</coordinates>
			</Point>
			<Snippet></Snippet>
			<description><![CDATA[<br>Source: Wikipedia article <a href="https://en.wikipedia.org/wiki/List_of_mountains_of_the_Alps_above_3000_m#cite_ref-13">List of mountains of the Alps above 3000 m</a>]]></description>
		</Placemark>
		<Placemark>
			<name><![CDATA[113. Olan (3564 m)]]></name>
			<Point>
				<coordinates>6.19722222222222,44.8594444444444,0</coordinates>
			</Point>
			<Snippet></Snippet>
			<description><![CDATA[<br>Source: Wikipedia article <a href="https://en.wikipedia.org/wiki/List_of_mountains_of_the_Alps_above_3000_m#cite_ref-13">List of mountains of the Alps above 3000 m</a>]]></description>
		</Placemark>
		<Placemark>
			<name><![CDATA[114. Großes Wiesbachhorn (3564 m)]]></name>
			<Point>
				<coordinates>12.7552777777778,47.1563888888889,0</coordinates>
			</Point>
			<Snippet></Snippet>
			<description><![CDATA[<br>Source: Wikipedia article <a href="https://en.wikipedia.org/wiki/List_of_mountains_of_the_Alps_above_3000_m#cite_ref-13">List of mountains of the Alps above 3000 m</a>]]></description>
		</Placemark>
		<Placemark>
			<name><![CDATA[115. Le Plaret (3563 m)]]></name>
			<Point>
				<coordinates>6.26,44.9686111111111,0</coordinates>
			</Point>
			<Snippet></Snippet>
			<description><![CDATA[<br>Source: Wikipedia article <a href="https://en.wikipedia.org/wiki/List_of_mountains_of_the_Alps_above_3000_m#cite_ref-13">List of mountains of the Alps above 3000 m</a>]]></description>
		</Placemark>
		<Placemark>
			<name><![CDATA[116. Cime de Clot Châtel (3563 m)]]></name>
			<Point>
				<coordinates>6.28027777777778,44.8975,0</coordinates>
			</Point>
			<Snippet></Snippet>
			<description><![CDATA[<br>Source: Wikipedia article <a href="https://en.wikipedia.org/wiki/List_of_mountains_of_the_Alps_above_3000_m#cite_ref-13">List of mountains of the Alps above 3000 m</a>]]></description>
		</Placemark>
		<Placemark>
			<name><![CDATA[Ouille d'Arbéron/Pta d'Arnas (3563 m)]]></name>
			<Point>
				<coordinates>7.12805555555556,45.2716666666667,0</coordinates>
			</Point>
			<Snippet></Snippet>
			<description><![CDATA[<br>Source: Wikipedia article <a href="https://en.wikipedia.org/wiki/List_of_mountains_of_the_Alps_above_3000_m#cite_ref-14">List of mountains of the Alps above 3000 m</a>]]></description>
		</Placemark>
		<Placemark>
			<name><![CDATA[117. Aig. de Péclet (3562 m)]]></name>
			<Point>
				<coordinates>6.62444444444445,45.2813888888889,0</coordinates>
			</Point>
			<Snippet></Snippet>
			<description><![CDATA[<br>Source: Wikipedia article <a href="https://en.wikipedia.org/wiki/List_of_mountains_of_the_Alps_above_3000_m#cite_ref-14">List of mountains of the Alps above 3000 m</a>]]></description>
		</Placemark>
		<Placemark>
			<name><![CDATA[118. Tschingelhorn (3562 m)]]></name>
			<Point>
				<coordinates>7.84861111111111,46.4786111111111,0</coordinates>
			</Point>
			<Snippet></Snippet>
			<description><![CDATA[<br>Source: Wikipedia article <a href="https://en.wikipedia.org/wiki/List_of_mountains_of_the_Alps_above_3000_m#cite_ref-14">List of mountains of the Alps above 3000 m</a>]]></description>
		</Placemark>
		<Placemark>
			<name><![CDATA[119. Tête de l'Étret (3559 m)]]></name>
			<Point>
				<coordinates>6.24527777777778,44.89,0</coordinates>
			</Point>
			<Snippet></Snippet>
			<description><![CDATA[<br>Source: Wikipedia article <a href="https://en.wikipedia.org/wiki/List_of_mountains_of_the_Alps_above_3000_m#cite_ref-14">List of mountains of the Alps above 3000 m</a>]]></description>
		</Placemark>
		<Placemark>
			<name><![CDATA[120. Presanella (3558 m)]]></name>
			<Point>
				<coordinates>10.6638888888889,46.22,0</coordinates>
			</Point>
			<Snippet></Snippet>
			<description><![CDATA[<br>Source: Wikipedia article <a href="https://en.wikipedia.org/wiki/List_of_mountains_of_the_Alps_above_3000_m#cite_ref-14">List of mountains of the Alps above 3000 m</a>]]></description>
		</Placemark>
		<Placemark>
			<name><![CDATA[121. Monte Emilius (3557 m)]]></name>
			<Point>
				<coordinates>7.38472222222222,45.6788888888889,0</coordinates>
			</Point>
			<Snippet></Snippet>
			<description><![CDATA[<br>Source: Wikipedia article <a href="https://en.wikipedia.org/wiki/List_of_mountains_of_the_Alps_above_3000_m#cite_ref-14">List of mountains of the Alps above 3000 m</a>]]></description>
		</Placemark>
		<Placemark>
			<name><![CDATA[122. Aouille Tseuque (3554 m)]]></name>
			<Point>
				<coordinates>7.44305555555556,45.9302777777778,0</coordinates>
			</Point>
			<Snippet></Snippet>
			<description><![CDATA[<br>Source: Wikipedia article <a href="https://en.wikipedia.org/wiki/List_of_mountains_of_the_Alps_above_3000_m#cite_ref-14">List of mountains of the Alps above 3000 m</a>]]></description>
		</Placemark>
		<Placemark>
			<name><![CDATA[123. Monte Leone (3553 m)]]></name>
			<Point>
				<coordinates>8.11,46.2494444444444,0</coordinates>
			</Point>
			<Snippet></Snippet>
			<description><![CDATA[<br>Source: Wikipedia article <a href="https://en.wikipedia.org/wiki/List_of_mountains_of_the_Alps_above_3000_m#cite_ref-14">List of mountains of the Alps above 3000 m</a>]]></description>
		</Placemark>
		<Placemark>
			<name><![CDATA[124. Großer Ramolkogel (3550 m)]]></name>
			<Point>
				<coordinates>10.9588888888889,46.8466666666667,0</coordinates>
			</Point>
			<Snippet></Snippet>
			<description><![CDATA[<br>Source: Wikipedia article <a href="https://en.wikipedia.org/wiki/List_of_mountains_of_the_Alps_above_3000_m#cite_ref-14">List of mountains of the Alps above 3000 m</a>]]></description>
		</Placemark>
		<Placemark>
			<name><![CDATA[125. Vertainspitze (3545 m)]]></name>
			<Point>
				<coordinates>10.6355555555556,46.5372222222222,0</coordinates>
			</Point>
			<Snippet></Snippet>
			<description><![CDATA[<br>Source: Wikipedia article <a href="https://en.wikipedia.org/wiki/List_of_mountains_of_the_Alps_above_3000_m#cite_ref-14">List of mountains of the Alps above 3000 m</a>]]></description>
		</Placemark>
		<Placemark>
			<name><![CDATA[126. Schalfkogel (3540 m)]]></name>
			<Point>
				<coordinates>10.9591666666667,46.8016666666667,0</coordinates>
			</Point>
			<Snippet></Snippet>
			<description><![CDATA[<br>Source: Wikipedia article <a href="https://en.wikipedia.org/wiki/List_of_mountains_of_the_Alps_above_3000_m#cite_ref-14">List of mountains of the Alps above 3000 m</a>]]></description>
		</Placemark>
		<Placemark>
			<name><![CDATA[127. Adamello (3539 m)]]></name>
			<Point>
				<coordinates>10.4961111111111,46.1558333333333,0</coordinates>
			</Point>
			<Snippet></Snippet>
			<description><![CDATA[<br>Source: Wikipedia article <a href="https://en.wikipedia.org/wiki/List_of_mountains_of_the_Alps_above_3000_m#cite_ref-14">List of mountains of the Alps above 3000 m</a>]]></description>
		</Placemark>
		<Placemark>
			<name><![CDATA[128. Rocciamelone (3538 m)]]></name>
			<Point>
				<coordinates>7.07694444444444,45.2038888888889,0</coordinates>
			</Point>
			<Snippet></Snippet>
			<description><![CDATA[<br>Source: Wikipedia article <a href="https://en.wikipedia.org/wiki/List_of_mountains_of_the_Alps_above_3000_m#cite_ref-14">List of mountains of the Alps above 3000 m</a>]]></description>
		</Placemark>
		<Placemark>
			<name><![CDATA[Hochvernagtspitze (3535 m)]]></name>
			<Point>
				<coordinates>10.7961111111111,46.8813888888889,0</coordinates>
			</Point>
			<Snippet></Snippet>
			<description><![CDATA[<br>Source: Wikipedia article <a href="https://en.wikipedia.org/wiki/List_of_mountains_of_the_Alps_above_3000_m#cite_ref-14">List of mountains of the Alps above 3000 m</a>]]></description>
		</Placemark>
		<Placemark>
			<name><![CDATA[129. Watzespitze (3533 m)]]></name>
			<Point>
				<coordinates>10.7955555555556,46.9894444444444,0</coordinates>
			</Point>
			<Snippet></Snippet>
			<description><![CDATA[<br>Source: Wikipedia article <a href="https://en.wikipedia.org/wiki/List_of_mountains_of_the_Alps_above_3000_m#cite_ref-14">List of mountains of the Alps above 3000 m</a>]]></description>
		</Placemark>
		<Placemark>
			<name><![CDATA[Bec d'Épicoune (3531 m)]]></name>
			<Point>
				<coordinates>7.4225,45.9147222222222,0</coordinates>
			</Point>
			<Snippet></Snippet>
			<description><![CDATA[<br>Source: Wikipedia article <a href="https://en.wikipedia.org/wiki/List_of_mountains_of_the_Alps_above_3000_m#cite_ref-14">List of mountains of the Alps above 3000 m</a>]]></description>
		</Placemark>
		<Placemark>
			<name><![CDATA[130. Mont Gelé (3518 m)]]></name>
			<Point>
				<coordinates>7.36611111111111,45.9041666666667,0</coordinates>
			</Point>
			<Snippet></Snippet>
			<description><![CDATA[<br>Source: Wikipedia article <a href="https://en.wikipedia.org/wiki/List_of_mountains_of_the_Alps_above_3000_m#cite_ref-14">List of mountains of the Alps above 3000 m</a>]]></description>
		</Placemark>
		<Placemark>
			<name><![CDATA[131. Weißseespitze (3518 m)]]></name>
			<Point>
				<coordinates>10.7172222222222,46.8466666666667,0</coordinates>
			</Point>
			<Snippet></Snippet>
			<description><![CDATA[<br>Source: Wikipedia article <a href="https://en.wikipedia.org/wiki/List_of_mountains_of_the_Alps_above_3000_m#cite_ref-14">List of mountains of the Alps above 3000 m</a>]]></description>
		</Placemark>
		<Placemark>
			<name><![CDATA[132. Aig. Méridionale d'Arves (3514 m)]]></name>
			<Point>
				<coordinates>6.33694444444444,45.1272222222222,0</coordinates>
			</Point>
			<Snippet></Snippet>
			<description><![CDATA[<br>Source: Wikipedia article <a href="https://en.wikipedia.org/wiki/List_of_mountains_of_the_Alps_above_3000_m#cite_ref-14">List of mountains of the Alps above 3000 m</a>]]></description>
		</Placemark>
		<Placemark>
			<name><![CDATA[133. Fineilspitze (3514 m)]]></name>
			<Point>
				<coordinates>10.8319444444444,46.7802777777778,0</coordinates>
			</Point>
			<Snippet></Snippet>
			<description><![CDATA[<br>Source: Wikipedia article <a href="https://en.wikipedia.org/wiki/List_of_mountains_of_the_Alps_above_3000_m#cite_ref-14">List of mountains of the Alps above 3000 m</a>]]></description>
		</Placemark>
		<Placemark>
			<name><![CDATA[134. Punta Tersiva / Pointe Tersive (3513 m)]]></name>
			<Point>
				<coordinates>7.47611111111111,45.6205555555556,0</coordinates>
			</Point>
			<Snippet></Snippet>
			<description><![CDATA[<br>Source: Wikipedia article <a href="https://en.wikipedia.org/wiki/List_of_mountains_of_the_Alps_above_3000_m#cite_ref-14">List of mountains of the Alps above 3000 m</a>]]></description>
		</Placemark>
		<Placemark>
			<name><![CDATA[135. Hochfeiler (3509 m)]]></name>
			<Point>
				<coordinates>11.7277777777778,46.9722222222222,0</coordinates>
			</Point>
			<Snippet></Snippet>
			<description><![CDATA[<br>Source: Wikipedia article <a href="https://en.wikipedia.org/wiki/List_of_mountains_of_the_Alps_above_3000_m#cite_ref-14">List of mountains of the Alps above 3000 m</a>]]></description>
		</Placemark>
		<Placemark>
			<name><![CDATA[136. Zuckerhütl (3507 m)]]></name>
			<Point>
				<coordinates>11.1538888888889,46.9644444444444,0</coordinates>
			</Point>
			<Snippet></Snippet>
			<description><![CDATA[<br>Source: Wikipedia article <a href="https://en.wikipedia.org/wiki/List_of_mountains_of_the_Alps_above_3000_m#cite_ref-14">List of mountains of the Alps above 3000 m</a>]]></description>
		</Placemark>
		<Placemark>
			<name><![CDATA[137. Aig. de Scolette / Pierre Menue (3506 m)]]></name>
			<Point>
				<coordinates>6.76861111111111,45.16,0</coordinates>
			</Point>
			<Snippet></Snippet>
			<description><![CDATA[<br>Source: Wikipedia article <a href="https://en.wikipedia.org/wiki/List_of_mountains_of_the_Alps_above_3000_m#cite_ref-14">List of mountains of the Alps above 3000 m</a>]]></description>
		</Placemark>
		<Placemark>
			<name><![CDATA[138. M. Morion / Rion: Pointe Monro (3505 m)]]></name>
			<Point>
				<coordinates>7.36777777777778,45.8813888888889,0</coordinates>
			</Point>
			<Snippet></Snippet>
			<description><![CDATA[<br>Source: Wikipedia article <a href="https://en.wikipedia.org/wiki/List_of_mountains_of_the_Alps_above_3000_m#cite_ref-14">List of mountains of the Alps above 3000 m</a>]]></description>
		</Placemark>
		<Placemark>
			<name><![CDATA[Galmihorn (3505 m)]]></name>
			<Point>
				<coordinates>8.185,46.5066666666667,0</coordinates>
			</Point>
			<Snippet></Snippet>
			<description><![CDATA[<br>Source: Wikipedia article <a href="https://en.wikipedia.org/wiki/List_of_mountains_of_the_Alps_above_3000_m#cite_ref-14">List of mountains of the Alps above 3000 m</a>]]></description>
		</Placemark>
		<Placemark>
			<name><![CDATA[144. Grande Traversière (3496 m)]]></name>
			<Point>
				<coordinates>7.05583333333333,45.5230555555556,0</coordinates>
			</Point>
			<Snippet></Snippet>
			<description><![CDATA[<br>Source: Wikipedia article <a href="https://en.wikipedia.org/wiki/List_of_mountains_of_the_Alps_above_3000_m#cite_ref-14">List of mountains of the Alps above 3000 m</a>]]></description>
		</Placemark>
		<Placemark>
			<name><![CDATA[145. Grand Nomenon (3488 m)]]></name>
			<Point>
				<coordinates>7.23611111111111,45.6119444444444,0</coordinates>
			</Point>
			<Snippet></Snippet>
			<description><![CDATA[<br>Source: Wikipedia article <a href="https://en.wikipedia.org/wiki/List_of_mountains_of_the_Alps_above_3000_m#cite_ref-14">List of mountains of the Alps above 3000 m</a>]]></description>
		</Placemark>
		<Placemark>
			<name><![CDATA[146. Sonnighorn / Pizzo Bottarello (3487 m)]]></name>
			<Point>
				<coordinates>8.02222222222222,46.0741666666667,0</coordinates>
			</Point>
			<Snippet></Snippet>
			<description><![CDATA[<br>Source: Wikipedia article <a href="https://en.wikipedia.org/wiki/List_of_mountains_of_the_Alps_above_3000_m#cite_ref-14">List of mountains of the Alps above 3000 m</a>]]></description>
		</Placemark>
		<Placemark>
			<name><![CDATA[147. Testa del Rutor (3486 m)]]></name>
			<Point>
				<coordinates>7.01444444444444,45.6308333333333,0</coordinates>
			</Point>
			<Snippet></Snippet>
			<description><![CDATA[<br>Source: Wikipedia article <a href="https://en.wikipedia.org/wiki/List_of_mountains_of_the_Alps_above_3000_m#cite_ref-14">List of mountains of the Alps above 3000 m</a>]]></description>
		</Placemark>
		<Placemark>
			<name><![CDATA[148. Grande Aig. Rousse (3482 m)]]></name>
			<Point>
				<coordinates>7.10972222222222,45.4330555555556,0</coordinates>
			</Point>
			<Snippet></Snippet>
			<description><![CDATA[<br>Source: Wikipedia article <a href="https://en.wikipedia.org/wiki/List_of_mountains_of_the_Alps_above_3000_m#cite_ref-14">List of mountains of the Alps above 3000 m</a>]]></description>
		</Placemark>
		<Placemark>
			<name><![CDATA[149. Pic de Bonvoisin (3481 m)]]></name>
			<Point>
				<coordinates>6.34694444444444,44.8236111111111,0</coordinates>
			</Point>
			<Snippet></Snippet>
			<description><![CDATA[<br>Source: Wikipedia article <a href="https://en.wikipedia.org/wiki/List_of_mountains_of_the_Alps_above_3000_m#cite_ref-14">List of mountains of the Alps above 3000 m</a>]]></description>
		</Placemark>
		<Placemark>
			<name><![CDATA[150. Großer Möseler (3480 m)]]></name>
			<Point>
				<coordinates>11.7819444444444,46.9925,0</coordinates>
			</Point>
			<Snippet></Snippet>
			<description><![CDATA[<br>Source: Wikipedia article <a href="https://en.wikipedia.org/wiki/List_of_mountains_of_the_Alps_above_3000_m#cite_ref-14">List of mountains of the Alps above 3000 m</a>]]></description>
		</Placemark>
		<Placemark>
			<name><![CDATA[151. Hochwilde (3480 m)]]></name>
			<Point>
				<coordinates>11.0222222222222,46.7655555555556,0</coordinates>
			</Point>
			<Snippet></Snippet>
			<description><![CDATA[<br>Source: Wikipedia article <a href="https://en.wikipedia.org/wiki/List_of_mountains_of_the_Alps_above_3000_m#cite_ref-14">List of mountains of the Alps above 3000 m</a>]]></description>
		</Placemark>
		<Placemark>
			<name><![CDATA[152. Olperer (3476 m)]]></name>
			<Point>
				<coordinates>11.6588888888889,47.0530555555556,0</coordinates>
			</Point>
			<Snippet></Snippet>
			<description><![CDATA[<br>Source: Wikipedia article <a href="https://en.wikipedia.org/wiki/List_of_mountains_of_the_Alps_above_3000_m#cite_ref-14">List of mountains of the Alps above 3000 m</a>]]></description>
		</Placemark>
		<Placemark>
			<name><![CDATA[153. Ruderhofspitze (3474 m)]]></name>
			<Point>
				<coordinates>11.1433333333333,47.0394444444444,0</coordinates>
			</Point>
			<Snippet></Snippet>
			<description><![CDATA[<br>Source: Wikipedia article <a href="https://en.wikipedia.org/wiki/List_of_mountains_of_the_Alps_above_3000_m#cite_ref-14">List of mountains of the Alps above 3000 m</a>]]></description>
		</Placemark>
		<Placemark>
			<name><![CDATA[154. Hinterer Seelenkogel (3472 m)]]></name>
			<Point>
				<coordinates>11.0444444444444,46.8016666666667,0</coordinates>
			</Point>
			<Snippet></Snippet>
			<description><![CDATA[<br>Source: Wikipedia article <a href="https://en.wikipedia.org/wiki/List_of_mountains_of_the_Alps_above_3000_m#cite_ref-14">List of mountains of the Alps above 3000 m</a>]]></description>
		</Placemark>
		<Placemark>
			<name><![CDATA[155. Grande Rousse S (Pic Bayle) (3465 m)]]></name>
			<Point>
				<coordinates>6.13583333333333,45.1377777777778,0</coordinates>
			</Point>
			<Snippet></Snippet>
			<description><![CDATA[<br>Source: Wikipedia article <a href="https://en.wikipedia.org/wiki/List_of_mountains_of_the_Alps_above_3000_m#cite_ref-14">List of mountains of the Alps above 3000 m</a>]]></description>
		</Placemark>
		<Placemark>
			<name><![CDATA[156. Roche de la Muzelle (3465 m)]]></name>
			<Point>
				<coordinates>6.10666666666667,44.9311111111111,0</coordinates>
			</Point>
			<Snippet></Snippet>
			<description><![CDATA[<br>Source: Wikipedia article <a href="https://en.wikipedia.org/wiki/List_of_mountains_of_the_Alps_above_3000_m#cite_ref-14">List of mountains of the Alps above 3000 m</a>]]></description>
		</Placemark>
		<Placemark>
			<name><![CDATA[Pic de l'Étendard (3464 m)]]></name>
			<Point>
				<coordinates>6.14388888888889,45.1544444444444,0</coordinates>
			</Point>
			<Snippet></Snippet>
			<description><![CDATA[<br>Source: Wikipedia article <a href="https://en.wikipedia.org/wiki/List_of_mountains_of_the_Alps_above_3000_m#cite_ref-15">List of mountains of the Alps above 3000 m</a>]]></description>
		</Placemark>
		<Placemark>
			<name><![CDATA[157. Carè Alto (3463 m)]]></name>
			<Point>
				<coordinates>10.5961111111111,46.1080555555556,0</coordinates>
			</Point>
			<Snippet></Snippet>
			<description><![CDATA[<br>Source: Wikipedia article <a href="https://en.wikipedia.org/wiki/List_of_mountains_of_the_Alps_above_3000_m#cite_ref-15">List of mountains of the Alps above 3000 m</a>]]></description>
		</Placemark>
		<Placemark>
			<name><![CDATA[158. Pic Garin (3462 m)]]></name>
			<Point>
				<coordinates>7.3775,45.6558333333333,0</coordinates>
			</Point>
			<Snippet></Snippet>
			<description><![CDATA[<br>Source: Wikipedia article <a href="https://en.wikipedia.org/wiki/List_of_mountains_of_the_Alps_above_3000_m#cite_ref-15">List of mountains of the Alps above 3000 m</a>]]></description>
		</Placemark>
		<Placemark>
			<name><![CDATA[159. Vordere Ölgrubenspitze (3456 m)]]></name>
			<Point>
				<coordinates>10.7733333333333,46.9083333333333,0</coordinates>
			</Point>
			<Snippet></Snippet>
			<description><![CDATA[<br>Source: Wikipedia article <a href="https://en.wikipedia.org/wiki/List_of_mountains_of_the_Alps_above_3000_m#cite_ref-vob_16-0">List of mountains of the Alps above 3000 m</a>]]></description>
		</Placemark>
		<Placemark>
			<name><![CDATA[159. Bliggspitze (3453 m)]]></name>
			<Point>
				<coordinates>10.7861111111111,46.9180555555556,0</coordinates>
			</Point>
			<Snippet></Snippet>
			<description><![CDATA[<br>Source: Wikipedia article <a href="https://en.wikipedia.org/wiki/List_of_mountains_of_the_Alps_above_3000_m#cite_ref-vob_16-1">List of mountains of the Alps above 3000 m</a>]]></description>
		</Placemark>
		<Placemark>
			<name><![CDATA[Johannisberg (3453 m)]]></name>
			<Point>
				<coordinates>12.6727777777778,47.1094444444444,0</coordinates>
			</Point>
			<Snippet></Snippet>
			<description><![CDATA[<br>Source: Wikipedia article <a href="https://en.wikipedia.org/wiki/List_of_mountains_of_the_Alps_above_3000_m#cite_ref-vob_16-1">List of mountains of the Alps above 3000 m</a>]]></description>
		</Placemark>
		<Placemark>
			<name><![CDATA[161. Piz Corvatsch (3451 m)]]></name>
			<Point>
				<coordinates>9.81611111111111,46.4083333333333,0</coordinates>
			</Point>
			<Snippet></Snippet>
			<description><![CDATA[<br>Source: Wikipedia article <a href="https://en.wikipedia.org/wiki/List_of_mountains_of_the_Alps_above_3000_m#cite_ref-vob_16-1">List of mountains of the Alps above 3000 m</a>]]></description>
		</Placemark>
		<Placemark>
			<name><![CDATA[162. Rinderhorn (3448 m)]]></name>
			<Point>
				<coordinates>7.65416666666667,46.4136111111111,0</coordinates>
			</Point>
			<Snippet></Snippet>
			<description><![CDATA[<br>Source: Wikipedia article <a href="https://en.wikipedia.org/wiki/List_of_mountains_of_the_Alps_above_3000_m#cite_ref-vob_16-1">List of mountains of the Alps above 3000 m</a>]]></description>
		</Placemark>
		<Placemark>
			<name><![CDATA[163. Wasenhorn (3447 m)]]></name>
			<Point>
				<coordinates>8.16583333333333,46.4980555555556,0</coordinates>
			</Point>
			<Snippet></Snippet>
			<description><![CDATA[<br>Source: Wikipedia article <a href="https://en.wikipedia.org/wiki/List_of_mountains_of_the_Alps_above_3000_m#cite_ref-vob_16-1">List of mountains of the Alps above 3000 m</a>]]></description>
		</Placemark>
		<Placemark>
			<name><![CDATA[164. Pointe de l'Aouillé (3446 m)]]></name>
			<Point>
				<coordinates>7.14805555555556,45.5266666666667,0</coordinates>
			</Point>
			<Snippet></Snippet>
			<description><![CDATA[<br>Source: Wikipedia article <a href="https://en.wikipedia.org/wiki/List_of_mountains_of_the_Alps_above_3000_m#cite_ref-vob_16-1">List of mountains of the Alps above 3000 m</a>]]></description>
		</Placemark>
		<Placemark>
			<name><![CDATA[165. Hintere Eggenspitze / Cima Sternai (3443 m)]]></name>
			<Point>
				<coordinates>10.7705555555556,46.4777777777778,0</coordinates>
			</Point>
			<Snippet></Snippet>
			<description><![CDATA[<br>Source: Wikipedia article <a href="https://en.wikipedia.org/wiki/List_of_mountains_of_the_Alps_above_3000_m#cite_ref-vob_16-1">List of mountains of the Alps above 3000 m</a>]]></description>
		</Placemark>
		<Placemark>
			<name><![CDATA[166. Roc du Mulinet (3442 m)]]></name>
			<Point>
				<coordinates>7.16277777777778,45.3808333333333,0</coordinates>
			</Point>
			<Snippet></Snippet>
			<description><![CDATA[<br>Source: Wikipedia article <a href="https://en.wikipedia.org/wiki/List_of_mountains_of_the_Alps_above_3000_m#cite_ref-vob_16-1">List of mountains of the Alps above 3000 m</a>]]></description>
		</Placemark>
		<Placemark>
			<name><![CDATA[167. Sirac (3441 m)]]></name>
			<Point>
				<coordinates>6.30694444444444,44.7897222222222,0</coordinates>
			</Point>
			<Snippet></Snippet>
			<description><![CDATA[<br>Source: Wikipedia article <a href="https://en.wikipedia.org/wiki/List_of_mountains_of_the_Alps_above_3000_m#cite_ref-vob_16-1">List of mountains of the Alps above 3000 m</a>]]></description>
		</Placemark>
		<Placemark>
			<name><![CDATA[168. Piz Tremoggia (3441 m)]]></name>
			<Point>
				<coordinates>9.82194444444444,46.3519444444444,0</coordinates>
			</Point>
			<Snippet></Snippet>
			<description><![CDATA[<br>Source: Wikipedia article <a href="https://en.wikipedia.org/wiki/List_of_mountains_of_the_Alps_above_3000_m#cite_ref-vob_16-1">List of mountains of the Alps above 3000 m</a>]]></description>
		</Placemark>
		<Placemark>
			<name><![CDATA[169. Dosson di Genova (3441 m)]]></name>
			<Point>
				<coordinates>10.5536111111111,46.1486111111111,0</coordinates>
			</Point>
			<Snippet></Snippet>
			<description><![CDATA[<br>Source: Wikipedia article <a href="https://en.wikipedia.org/wiki/List_of_mountains_of_the_Alps_above_3000_m#cite_ref-vob_16-1">List of mountains of the Alps above 3000 m</a>]]></description>
		</Placemark>
		<Placemark>
			<name><![CDATA[170. Truc Blanc (3440 m)]]></name>
			<Point>
				<coordinates>7.16722222222222,45.5872222222222,0</coordinates>
			</Point>
			<Snippet></Snippet>
			<description><![CDATA[<br>Source: Wikipedia article <a href="https://en.wikipedia.org/wiki/List_of_mountains_of_the_Alps_above_3000_m#cite_ref-vob_16-1">List of mountains of the Alps above 3000 m</a>]]></description>
		</Placemark>
		<Placemark>
			<name><![CDATA[171. Cima de' Piazzi (3439 m)]]></name>
			<Point>
				<coordinates>10.285,46.4166666666667,0</coordinates>
			</Point>
			<Snippet></Snippet>
			<description><![CDATA[<br>Source: Wikipedia article <a href="https://en.wikipedia.org/wiki/List_of_mountains_of_the_Alps_above_3000_m#cite_ref-vob_16-1">List of mountains of the Alps above 3000 m</a>]]></description>
		</Placemark>
		<Placemark>
			<name><![CDATA[172. Lagaunspitze (3439 m)]]></name>
			<Point>
				<coordinates>10.7391666666667,46.7391666666667,0</coordinates>
			</Point>
			<Snippet></Snippet>
			<description><![CDATA[<br>Source: Wikipedia article <a href="https://en.wikipedia.org/wiki/List_of_mountains_of_the_Alps_above_3000_m#cite_ref-vob_16-1">List of mountains of the Alps above 3000 m</a>]]></description>
		</Placemark>
		<Placemark>
			<name><![CDATA[173. Zufrittspitze (3439 m)]]></name>
			<Point>
				<coordinates>10.7822222222222,46.5019444444444,0</coordinates>
			</Point>
			<Snippet></Snippet>
			<description><![CDATA[<br>Source: Wikipedia article <a href="https://en.wikipedia.org/wiki/List_of_mountains_of_the_Alps_above_3000_m#cite_ref-vob_16-1">List of mountains of the Alps above 3000 m</a>]]></description>
		</Placemark>
		<Placemark>
			<name><![CDATA[174. Hochgall (3436 m)]]></name>
			<Point>
				<coordinates>12.1397222222222,46.9108333333333,0</coordinates>
			</Point>
			<Snippet></Snippet>
			<description><![CDATA[<br>Source: Wikipedia article <a href="https://en.wikipedia.org/wiki/List_of_mountains_of_the_Alps_above_3000_m#cite_ref-vob_16-1">List of mountains of the Alps above 3000 m</a>]]></description>
		</Placemark>
		<Placemark>
			<name><![CDATA[175. Gspaltenhorn (3436 m)]]></name>
			<Point>
				<coordinates>7.8275,46.5116666666667,0</coordinates>
			</Point>
			<Snippet></Snippet>
			<description><![CDATA[<br>Source: Wikipedia article <a href="https://en.wikipedia.org/wiki/List_of_mountains_of_the_Alps_above_3000_m#cite_ref-vob_16-1">List of mountains of the Alps above 3000 m</a>]]></description>
		</Placemark>
		<Placemark>
			<name><![CDATA[176. Stellihorn (3436 m)]]></name>
			<Point>
				<coordinates>8.00083333333333,46.0363888888889,0</coordinates>
			</Point>
			<Snippet></Snippet>
			<description><![CDATA[<br>Source: Wikipedia article <a href="https://en.wikipedia.org/wiki/List_of_mountains_of_the_Alps_above_3000_m#cite_ref-vob_16-1">List of mountains of the Alps above 3000 m</a>]]></description>
		</Placemark>
		<Placemark>
			<name><![CDATA[177. Pte de la Sana (3436 m)]]></name>
			<Point>
				<coordinates>6.91805555555556,45.385,0</coordinates>
			</Point>
			<Snippet></Snippet>
			<description><![CDATA[<br>Source: Wikipedia article <a href="https://en.wikipedia.org/wiki/List_of_mountains_of_the_Alps_above_3000_m#cite_ref-vob_16-1">List of mountains of the Alps above 3000 m</a>]]></description>
		</Placemark>
		<Placemark>
			<name><![CDATA[178. Verpeilspitze (3425 m)]]></name>
			<Point>
				<coordinates>10.805,47.0033333333333,0</coordinates>
			</Point>
			<Snippet></Snippet>
			<description><![CDATA[<br>Source: Wikipedia article <a href="https://en.wikipedia.org/wiki/List_of_mountains_of_the_Alps_above_3000_m#cite_ref-vob_16-1">List of mountains of the Alps above 3000 m</a>]]></description>
		</Placemark>
		<Placemark>
			<name><![CDATA[179. Pte de l'Échelle (3422 m)]]></name>
			<Point>
				<coordinates>6.68527777777778,45.2691666666667,0</coordinates>
			</Point>
			<Snippet></Snippet>
			<description><![CDATA[<br>Source: Wikipedia article <a href="https://en.wikipedia.org/wiki/List_of_mountains_of_the_Alps_above_3000_m#cite_ref-vob_16-1">List of mountains of the Alps above 3000 m</a>]]></description>
		</Placemark>
		<Placemark>
			<name><![CDATA[180. Aig. du Goleon (3422 m)]]></name>
			<Point>
				<coordinates>6.32638888888889,45.1036111111111,0</coordinates>
			</Point>
			<Snippet></Snippet>
			<description><![CDATA[<br>Source: Wikipedia article <a href="https://en.wikipedia.org/wiki/List_of_mountains_of_the_Alps_above_3000_m#cite_ref-vob_16-1">List of mountains of the Alps above 3000 m</a>]]></description>
		</Placemark>
		<Placemark>
			<name><![CDATA[181. Aig. de l'Épéna (3421 m)]]></name>
			<Point>
				<coordinates>6.81722222222222,45.4147222222222,0</coordinates>
			</Point>
			<Snippet></Snippet>
			<description><![CDATA[<br>Source: Wikipedia article <a href="https://en.wikipedia.org/wiki/List_of_mountains_of_the_Alps_above_3000_m#cite_ref-vob_16-1">List of mountains of the Alps above 3000 m</a>]]></description>
		</Placemark>
		<Placemark>
			<name><![CDATA[Pics du Says (3420 m)]]></name>
			<Point>
				<coordinates>6.30583333333333,44.8738888888889,0</coordinates>
			</Point>
			<Snippet></Snippet>
			<description><![CDATA[<br>Source: Wikipedia article <a href="https://en.wikipedia.org/wiki/List_of_mountains_of_the_Alps_above_3000_m#cite_ref-vob_16-1">List of mountains of the Alps above 3000 m</a>]]></description>
		</Placemark>
		<Placemark>
			<name><![CDATA[182. Bifertenstock / Piz Durschin (3419 m)]]></name>
			<Point>
				<coordinates>8.9575,46.8044444444444,0</coordinates>
			</Point>
			<Snippet></Snippet>
			<description><![CDATA[<br>Source: Wikipedia article <a href="https://en.wikipedia.org/wiki/List_of_mountains_of_the_Alps_above_3000_m#cite_ref-vob_16-1">List of mountains of the Alps above 3000 m</a>]]></description>
		</Placemark>
		<Placemark>
			<name><![CDATA[183. Piz Kesch / Piz d' Es-Cha (3418 m)]]></name>
			<Point>
				<coordinates>9.87277777777778,46.6213888888889,0</coordinates>
			</Point>
			<Snippet></Snippet>
			<description><![CDATA[<br>Source: Wikipedia article <a href="https://en.wikipedia.org/wiki/List_of_mountains_of_the_Alps_above_3000_m#cite_ref-vob_16-1">List of mountains of the Alps above 3000 m</a>]]></description>
		</Placemark>
		<Placemark>
			<name><![CDATA[184. Sommet de Bellecôte (3417 m)]]></name>
			<Point>
				<coordinates>6.7825,45.4925,0</coordinates>
			</Point>
			<Snippet></Snippet>
			<description><![CDATA[<br>Source: Wikipedia article <a href="https://en.wikipedia.org/wiki/List_of_mountains_of_the_Alps_above_3000_m#cite_ref-vob_16-1">List of mountains of the Alps above 3000 m</a>]]></description>
		</Placemark>
		<Placemark>
			<name><![CDATA[185. Fleckistock / Rot Stock (3416 m)]]></name>
			<Point>
				<coordinates>8.4975,46.7075,0</coordinates>
			</Point>
			<Snippet></Snippet>
			<description><![CDATA[<br>Source: Wikipedia article <a href="https://en.wikipedia.org/wiki/List_of_mountains_of_the_Alps_above_3000_m#cite_ref-vob_16-1">List of mountains of the Alps above 3000 m</a>]]></description>
		</Placemark>
		<Placemark>
			<name><![CDATA[186. Pte du Bouchet (3416 m)]]></name>
			<Point>
				<coordinates>6.60416666666667,45.2541666666667,0</coordinates>
			</Point>
			<Snippet></Snippet>
			<description><![CDATA[<br>Source: Wikipedia article <a href="https://en.wikipedia.org/wiki/List_of_mountains_of_the_Alps_above_3000_m#cite_ref-vob_16-1">List of mountains of the Alps above 3000 m</a>]]></description>
		</Placemark>
		<Placemark>
			<name><![CDATA[187. Aig. de Chambeyron (3412 m)]]></name>
			<Point>
				<coordinates>6.85666666666667,44.5477777777778,0</coordinates>
			</Point>
			<Snippet></Snippet>
			<description><![CDATA[<br>Source: Wikipedia article <a href="https://en.wikipedia.org/wiki/List_of_mountains_of_the_Alps_above_3000_m#cite_ref-vob_16-1">List of mountains of the Alps above 3000 m</a>]]></description>
		</Placemark>
		<Placemark>
			<name><![CDATA[188. Piz Linard (3411 m)]]></name>
			<Point>
				<coordinates>10.0716666666667,46.7988888888889,0</coordinates>
			</Point>
			<Snippet></Snippet>
			<description><![CDATA[<br>Source: Wikipedia article <a href="https://en.wikipedia.org/wiki/List_of_mountains_of_the_Alps_above_3000_m#cite_ref-vob_16-1">List of mountains of the Alps above 3000 m</a>]]></description>
		</Placemark>
		<Placemark>
			<name><![CDATA[189. Schrammacher (3410 m)]]></name>
			<Point>
				<coordinates>11.6430555555556,47.0269444444444,0</coordinates>
			</Point>
			<Snippet></Snippet>
			<description><![CDATA[<br>Source: Wikipedia article <a href="https://en.wikipedia.org/wiki/List_of_mountains_of_the_Alps_above_3000_m#cite_ref-vob_16-1">List of mountains of the Alps above 3000 m</a>]]></description>
		</Placemark>
		<Placemark>
			<name><![CDATA[190. Hochfirst (3403 m)]]></name>
			<Point>
				<coordinates>11.0811111111111,46.8266666666667,0</coordinates>
			</Point>
			<Snippet></Snippet>
			<description><![CDATA[<br>Source: Wikipedia article <a href="https://en.wikipedia.org/wiki/List_of_mountains_of_the_Alps_above_3000_m#cite_ref-vob_16-1">List of mountains of the Alps above 3000 m</a>]]></description>
		</Placemark>
		<Placemark>
			<name><![CDATA[191. Rheinwaldhorn (3402 m)]]></name>
			<Point>
				<coordinates>9.04027777777778,46.4936111111111,0</coordinates>
			</Point>
			<Snippet></Snippet>
			<description><![CDATA[<br>Source: Wikipedia article <a href="https://en.wikipedia.org/wiki/List_of_mountains_of_the_Alps_above_3000_m#cite_ref-vob_16-1">List of mountains of the Alps above 3000 m</a>]]></description>
		</Placemark>
		<Placemark>
			<name><![CDATA[192. Aigs des Arias (3402 m)]]></name>
			<Point>
				<coordinates>6.17416666666667,44.8955555555556,0</coordinates>
			</Point>
			<Snippet></Snippet>
			<description><![CDATA[<br>Source: Wikipedia article <a href="https://en.wikipedia.org/wiki/List_of_mountains_of_the_Alps_above_3000_m#cite_ref-vob_16-1">List of mountains of the Alps above 3000 m</a>]]></description>
		</Placemark>
		<Placemark>
			<name><![CDATA[193. Fluchthorn (3399 m)]]></name>
			<Point>
				<coordinates>10.2275,46.8908333333333,0</coordinates>
			</Point>
			<Snippet></Snippet>
			<description><![CDATA[<br>Source: Wikipedia article <a href="https://en.wikipedia.org/wiki/List_of_mountains_of_the_Alps_above_3000_m#cite_ref-vob_16-1">List of mountains of the Alps above 3000 m</a>]]></description>
		</Placemark>
		<Placemark>
			<name><![CDATA[194. Piz Calderas (3397 m)]]></name>
			<Point>
				<coordinates>9.69583333333333,46.5363888888889,0</coordinates>
			</Point>
			<Snippet></Snippet>
			<description><![CDATA[<br>Source: Wikipedia article <a href="https://en.wikipedia.org/wiki/List_of_mountains_of_the_Alps_above_3000_m#cite_ref-vob_16-1">List of mountains of the Alps above 3000 m</a>]]></description>
		</Placemark>
		<Placemark>
			<name><![CDATA[195. Großer Bärenkopf (3396 m)]]></name>
			<Point>
				<coordinates>12.7316666666667,47.1308333333333,0</coordinates>
			</Point>
			<Snippet></Snippet>
			<description><![CDATA[<br>Source: Wikipedia article <a href="https://en.wikipedia.org/wiki/List_of_mountains_of_the_Alps_above_3000_m#cite_ref-vob_16-1">List of mountains of the Alps above 3000 m</a>]]></description>
		</Placemark>
		<Placemark>
			<name><![CDATA[196. Hohe Geige (3395 m)]]></name>
			<Point>
				<coordinates>10.9086111111111,47.0047222222222,0</coordinates>
			</Point>
			<Snippet></Snippet>
			<description><![CDATA[<br>Source: Wikipedia article <a href="https://en.wikipedia.org/wiki/List_of_mountains_of_the_Alps_above_3000_m#cite_ref-vob_16-1">List of mountains of the Alps above 3000 m</a>]]></description>
		</Placemark>
		<Placemark>
			<name><![CDATA[197. Piz Platta (3392 m)]]></name>
			<Point>
				<coordinates>9.56166666666667,46.4872222222222,0</coordinates>
			</Point>
			<Snippet></Snippet>
			<description><![CDATA[<br>Source: Wikipedia article <a href="https://en.wikipedia.org/wiki/List_of_mountains_of_the_Alps_above_3000_m#cite_ref-vob_16-1">List of mountains of the Alps above 3000 m</a>]]></description>
		</Placemark>
		<Placemark>
			<name><![CDATA[198. Brec de Chambeyron (3389 m)]]></name>
			<Point>
				<coordinates>6.85333333333333,44.5280555555556,0</coordinates>
			</Point>
			<Snippet></Snippet>
			<description><![CDATA[<br>Source: Wikipedia article <a href="https://en.wikipedia.org/wiki/List_of_mountains_of_the_Alps_above_3000_m#cite_ref-vob_16-1">List of mountains of the Alps above 3000 m</a>]]></description>
		</Placemark>
		<Placemark>
			<name><![CDATA[199. Diechterhorn (3389 m)]]></name>
			<Point>
				<coordinates>8.36055555555556,46.6486111111111,0</coordinates>
			</Point>
			<Snippet></Snippet>
			<description><![CDATA[<br>Source: Wikipedia article <a href="https://en.wikipedia.org/wiki/List_of_mountains_of_the_Alps_above_3000_m#cite_ref-vob_16-1">List of mountains of the Alps above 3000 m</a>]]></description>
		</Placemark>
		<Placemark>
			<name><![CDATA[200. Veneziaspitze / Cima Venezia (3386 m)]]></name>
			<Point>
				<coordinates>10.6891666666667,46.4538888888889,0</coordinates>
			</Point>
			<Snippet></Snippet>
			<description><![CDATA[<br>Source: Wikipedia article <a href="https://en.wikipedia.org/wiki/List_of_mountains_of_the_Alps_above_3000_m#cite_ref-vob_16-1">List of mountains of the Alps above 3000 m</a>]]></description>
		</Placemark>
		<Placemark>
			<name><![CDATA[201. Pic Nord de la Font Sancte (3385 m)]]></name>
			<Point>
				<coordinates>6.80027777777778,44.605,0</coordinates>
			</Point>
			<Snippet></Snippet>
			<description><![CDATA[<br>Source: Wikipedia article <a href="https://en.wikipedia.org/wiki/List_of_mountains_of_the_Alps_above_3000_m#cite_ref-vob_16-1">List of mountains of the Alps above 3000 m</a>]]></description>
		</Placemark>
		<Placemark>
			<name><![CDATA[202. Punta di Fontanella (3384 m)]]></name>
			<Point>
				<coordinates>7.55583333333333,45.9061111111111,0</coordinates>
			</Point>
			<Snippet></Snippet>
			<description><![CDATA[<br>Source: Wikipedia article <a href="https://en.wikipedia.org/wiki/List_of_mountains_of_the_Alps_above_3000_m#cite_ref-vob_16-1">List of mountains of the Alps above 3000 m</a>]]></description>
		</Placemark>
		<Placemark>
			<name><![CDATA[203. Pta Sulè (3384 m)]]></name>
			<Point>
				<coordinates>7.1375,45.2313888888889,0</coordinates>
			</Point>
			<Snippet></Snippet>
			<description><![CDATA[<br>Source: Wikipedia article <a href="https://en.wikipedia.org/wiki/List_of_mountains_of_the_Alps_above_3000_m#cite_ref-vob_16-1">List of mountains of the Alps above 3000 m</a>]]></description>
		</Placemark>
		<Placemark>
			<name><![CDATA[204. Rognosa d'Etiache / d'Étache (3383 m)]]></name>
			<Point>
				<coordinates>6.83388888888889,45.1347222222222,0</coordinates>
			</Point>
			<Snippet></Snippet>
			<description><![CDATA[<br>Source: Wikipedia article <a href="https://en.wikipedia.org/wiki/List_of_mountains_of_the_Alps_above_3000_m#cite_ref-vob_16-1">List of mountains of the Alps above 3000 m</a>]]></description>
		</Placemark>
		<Placemark>
			<name><![CDATA[205. Piz Güglia / Piz Julier (3380 m)]]></name>
			<Point>
				<coordinates>9.75972222222222,46.4911111111111,0</coordinates>
			</Point>
			<Snippet></Snippet>
			<description><![CDATA[<br>Source: Wikipedia article <a href="https://en.wikipedia.org/wiki/List_of_mountains_of_the_Alps_above_3000_m#cite_ref-vob_16-1">List of mountains of the Alps above 3000 m</a>]]></description>
		</Placemark>
		<Placemark>
			<name><![CDATA[206. Grand Tournalin (3379 m)]]></name>
			<Point>
				<coordinates>7.68805555555556,45.8716666666667,0</coordinates>
			</Point>
			<Snippet></Snippet>
			<description><![CDATA[<br>Source: Wikipedia article <a href="https://en.wikipedia.org/wiki/List_of_mountains_of_the_Alps_above_3000_m#cite_ref-vob_16-1">List of mountains of the Alps above 3000 m</a>]]></description>
		</Placemark>
		<Placemark>
			<name><![CDATA[207. Güferhorn (3379 m)]]></name>
			<Point>
				<coordinates>9.06305555555556,46.5125,0</coordinates>
			</Point>
			<Snippet></Snippet>
			<description><![CDATA[<br>Source: Wikipedia article <a href="https://en.wikipedia.org/wiki/List_of_mountains_of_the_Alps_above_3000_m#cite_ref-vob_16-1">List of mountains of the Alps above 3000 m</a>]]></description>
		</Placemark>
		<Placemark>
			<name><![CDATA[208. Cima di Castello (3379 m)]]></name>
			<Point>
				<coordinates>9.67694444444444,46.3030555555556,0</coordinates>
			</Point>
			<Snippet></Snippet>
			<description><![CDATA[<br>Source: Wikipedia article <a href="https://en.wikipedia.org/wiki/List_of_mountains_of_the_Alps_above_3000_m#cite_ref-vob_16-1">List of mountains of the Alps above 3000 m</a>]]></description>
		</Placemark>
		<Placemark>
			<name><![CDATA[209. Großer Löffler (3379 m)]]></name>
			<Point>
				<coordinates>11.9158333333333,47.0325,0</coordinates>
			</Point>
			<Snippet></Snippet>
			<description><![CDATA[<br>Source: Wikipedia article <a href="https://en.wikipedia.org/wiki/List_of_mountains_of_the_Alps_above_3000_m#cite_ref-vob_16-1">List of mountains of the Alps above 3000 m</a>]]></description>
		</Placemark>
		<Placemark>
			<name><![CDATA[210. Mont d'Ambin / Rocca d'Ambin (3378 m)]]></name>
			<Point>
				<coordinates>6.88444444444444,45.1566666666667,0</coordinates>
			</Point>
			<Snippet></Snippet>
			<description><![CDATA[<br>Source: Wikipedia article <a href="https://en.wikipedia.org/wiki/List_of_mountains_of_the_Alps_above_3000_m#cite_ref-vob_16-1">List of mountains of the Alps above 3000 m</a>]]></description>
		</Placemark>
		<Placemark>
			<name><![CDATA[211. Cima Viola (3374 m)]]></name>
			<Point>
				<coordinates>10.1963888888889,46.3836111111111,0</coordinates>
			</Point>
			<Snippet></Snippet>
			<description><![CDATA[<br>Source: Wikipedia article <a href="https://en.wikipedia.org/wiki/List_of_mountains_of_the_Alps_above_3000_m#cite_ref-vob_16-1">List of mountains of the Alps above 3000 m</a>]]></description>
		</Placemark>
		<Placemark>
			<name><![CDATA[212. Blinnenhorn / Corno Cieco (3374 m)]]></name>
			<Point>
				<coordinates>8.30777777777778,46.4258333333333,0</coordinates>
			</Point>
			<Snippet></Snippet>
			<description><![CDATA[<br>Source: Wikipedia article <a href="https://en.wikipedia.org/wiki/List_of_mountains_of_the_Alps_above_3000_m#cite_ref-vob_16-1">List of mountains of the Alps above 3000 m</a>]]></description>
		</Placemark>
		<Placemark>
			<name><![CDATA[213. Hoher Eichham (3371 m)]]></name>
			<Point>
				<coordinates>12.4066666666667,47.0538888888889,0</coordinates>
			</Point>
			<Snippet></Snippet>
			<description><![CDATA[<br>Source: Wikipedia article <a href="https://en.wikipedia.org/wiki/List_of_mountains_of_the_Alps_above_3000_m#cite_ref-vob_16-1">List of mountains of the Alps above 3000 m</a>]]></description>
		</Placemark>
		<Placemark>
			<name><![CDATA[214. Monte Confinale (3370 m)]]></name>
			<Point>
				<coordinates>10.5044444444444,46.4494444444444,0</coordinates>
			</Point>
			<Snippet></Snippet>
			<description><![CDATA[<br>Source: Wikipedia article <a href="https://en.wikipedia.org/wiki/List_of_mountains_of_the_Alps_above_3000_m#cite_ref-vob_16-1">List of mountains of the Alps above 3000 m</a>]]></description>
		</Placemark>
		<Placemark>
			<name><![CDATA[215. Pizzo Cengalo (3369 m)]]></name>
			<Point>
				<coordinates>9.60194444444444,46.295,0</coordinates>
			</Point>
			<Snippet></Snippet>
			<description><![CDATA[<br>Source: Wikipedia article <a href="https://en.wikipedia.org/wiki/List_of_mountains_of_the_Alps_above_3000_m#cite_ref-vob_16-1">List of mountains of the Alps above 3000 m</a>]]></description>
		</Placemark>
		<Placemark>
			<name><![CDATA[216. Schwarzenstein (3369 m)]]></name>
			<Point>
				<coordinates>11.8741666666667,47.01,0</coordinates>
			</Point>
			<Snippet></Snippet>
			<description><![CDATA[<br>Source: Wikipedia article <a href="https://en.wikipedia.org/wiki/List_of_mountains_of_the_Alps_above_3000_m#cite_ref-vob_16-1">List of mountains of the Alps above 3000 m</a>]]></description>
		</Placemark>
		<Placemark>
			<name><![CDATA[217. Hoher Tenn (3368 m)]]></name>
			<Point>
				<coordinates>12.7594444444444,47.1797222222222,0</coordinates>
			</Point>
			<Snippet></Snippet>
			<description><![CDATA[<br>Source: Wikipedia article <a href="https://en.wikipedia.org/wiki/List_of_mountains_of_the_Alps_above_3000_m#cite_ref-vob_16-1">List of mountains of the Alps above 3000 m</a>]]></description>
		</Placemark>
		<Placemark>
			<name><![CDATA[218. Malhamspitzen (3368 m)]]></name>
			<Point>
				<coordinates>12.2594444444444,47.0491666666667,0</coordinates>
			</Point>
			<Snippet></Snippet>
			<description><![CDATA[<br>Source: Wikipedia article <a href="https://en.wikipedia.org/wiki/List_of_mountains_of_the_Alps_above_3000_m#cite_ref-vob_16-1">List of mountains of the Alps above 3000 m</a>]]></description>
		</Placemark>
		<Placemark>
			<name><![CDATA[219. Egginer (3367 m)]]></name>
			<Point>
				<coordinates>7.93,46.0752777777778,0</coordinates>
			</Point>
			<Snippet></Snippet>
			<description><![CDATA[<br>Source: Wikipedia article <a href="https://en.wikipedia.org/wiki/List_of_mountains_of_the_Alps_above_3000_m#cite_ref-vob_16-1">List of mountains of the Alps above 3000 m</a>]]></description>
		</Placemark>
		<Placemark>
			<name><![CDATA[Innere Schwarze Schneid (3367 m)]]></name>
			<Point>
				<coordinates>10.9213888888889,46.9241666666667,0</coordinates>
			</Point>
			<Snippet></Snippet>
			<description><![CDATA[<br>Source: Wikipedia article <a href="https://en.wikipedia.org/wiki/List_of_mountains_of_the_Alps_above_3000_m#cite_ref-vob_16-1">List of mountains of the Alps above 3000 m</a>]]></description>
		</Placemark>
		<Placemark>
			<name><![CDATA[220. Piz Fora (3363 m)]]></name>
			<Point>
				<coordinates>9.78472222222222,46.3408333333333,0</coordinates>
			</Point>
			<Snippet></Snippet>
			<description><![CDATA[<br>Source: Wikipedia article <a href="https://en.wikipedia.org/wiki/List_of_mountains_of_the_Alps_above_3000_m#cite_ref-vob_16-1">List of mountains of the Alps above 3000 m</a>]]></description>
		</Placemark>
		<Placemark>
			<name><![CDATA[221. Hochalmspitze (3360 m)]]></name>
			<Point>
				<coordinates>13.3211111111111,47.015,0</coordinates>
			</Point>
			<Snippet></Snippet>
			<description><![CDATA[<br>Source: Wikipedia article <a href="https://en.wikipedia.org/wiki/List_of_mountains_of_the_Alps_above_3000_m#cite_ref-vob_16-1">List of mountains of the Alps above 3000 m</a>]]></description>
		</Placemark>
		<Placemark>
			<name><![CDATA[222. Corno dei Tre Signori (3360 m)]]></name>
			<Point>
				<coordinates>10.5155555555556,46.3430555555556,0</coordinates>
			</Point>
			<Snippet></Snippet>
			<description><![CDATA[<br>Source: Wikipedia article <a href="https://en.wikipedia.org/wiki/List_of_mountains_of_the_Alps_above_3000_m#cite_ref-vob_16-1">List of mountains of the Alps above 3000 m</a>]]></description>
		</Placemark>
		<Placemark>
			<name><![CDATA[Großer Geiger (3360 m)]]></name>
			<Point>
				<coordinates>12.3088888888889,47.0930555555556,0</coordinates>
			</Point>
			<Snippet></Snippet>
			<description><![CDATA[<br>Source: Wikipedia article <a href="https://en.wikipedia.org/wiki/List_of_mountains_of_the_Alps_above_3000_m#cite_ref-vob_16-1">List of mountains of the Alps above 3000 m</a>]]></description>
		</Placemark>
		<Placemark>
			<name><![CDATA[223. Wilde Leck (3359 m)]]></name>
			<Point>
				<coordinates>11.0625,47.0027777777778,0</coordinates>
			</Point>
			<Snippet></Snippet>
			<description><![CDATA[<br>Source: Wikipedia article <a href="https://en.wikipedia.org/wiki/List_of_mountains_of_the_Alps_above_3000_m#cite_ref-vob_16-1">List of mountains of the Alps above 3000 m</a>]]></description>
		</Placemark>
		<Placemark>
			<name><![CDATA[224. Schneebiger Nock / Ruthnerhorn (3358 m)]]></name>
			<Point>
				<coordinates>12.0841666666667,46.9052777777778,0</coordinates>
			</Point>
			<Snippet></Snippet>
			<description><![CDATA[<br>Source: Wikipedia article <a href="https://en.wikipedia.org/wiki/List_of_mountains_of_the_Alps_above_3000_m#cite_ref-vob_16-1">List of mountains of the Alps above 3000 m</a>]]></description>
		</Placemark>
		<Placemark>
			<name><![CDATA[225. Grande Roise (3357 m)]]></name>
			<Point>
				<coordinates>7.42305555555556,45.6752777777778,0</coordinates>
			</Point>
			<Snippet></Snippet>
			<description><![CDATA[<br>Source: Wikipedia article <a href="https://en.wikipedia.org/wiki/List_of_mountains_of_the_Alps_above_3000_m#cite_ref-vob_16-1">List of mountains of the Alps above 3000 m</a>]]></description>
		</Placemark>
		<Placemark>
			<name><![CDATA[226. Rofelewand (3353 m)]]></name>
			<Point>
				<coordinates>10.8183333333333,47.0325,0</coordinates>
			</Point>
			<Snippet></Snippet>
			<description><![CDATA[<br>Source: Wikipedia article <a href="https://en.wikipedia.org/wiki/List_of_mountains_of_the_Alps_above_3000_m#cite_ref-vob_16-1">List of mountains of the Alps above 3000 m</a>]]></description>
		</Placemark>
		<Placemark>
			<name><![CDATA[227. Glockturm (3353 m)]]></name>
			<Point>
				<coordinates>10.6655555555556,46.8933333333333,0</coordinates>
			</Point>
			<Snippet></Snippet>
			<description><![CDATA[<br>Source: Wikipedia article <a href="https://en.wikipedia.org/wiki/List_of_mountains_of_the_Alps_above_3000_m#cite_ref-vob_16-1">List of mountains of the Alps above 3000 m</a>]]></description>
		</Placemark>
		<Placemark>
			<name><![CDATA[228. Puitkogel (3345 m)]]></name>
			<Point>
				<coordinates>10.9013888888889,46.9813888888889,0</coordinates>
			</Point>
			<Snippet></Snippet>
			<description><![CDATA[<br>Source: Wikipedia article <a href="https://en.wikipedia.org/wiki/List_of_mountains_of_the_Alps_above_3000_m#cite_ref-vob_16-1">List of mountains of the Alps above 3000 m</a>]]></description>
		</Placemark>
		<Placemark>
			<name><![CDATA[229. Marmolada (Pta Penia) (3343 m)]]></name>
			<Point>
				<coordinates>11.8508333333333,46.4347222222222,0</coordinates>
			</Point>
			<Snippet></Snippet>
			<description><![CDATA[<br>Source: Wikipedia article <a href="https://en.wikipedia.org/wiki/List_of_mountains_of_the_Alps_above_3000_m#cite_ref-vob_16-1">List of mountains of the Alps above 3000 m</a>]]></description>
		</Placemark>
		<Placemark>
			<name><![CDATA[230. Bric de Rubren / Mongioia (3340 m)]]></name>
			<Point>
				<coordinates>6.94972222222222,44.62,0</coordinates>
			</Point>
			<Snippet></Snippet>
			<description><![CDATA[<br>Source: Wikipedia article <a href="https://en.wikipedia.org/wiki/List_of_mountains_of_the_Alps_above_3000_m#cite_ref-vob_16-1">List of mountains of the Alps above 3000 m</a>]]></description>
		</Placemark>
		<Placemark>
			<name><![CDATA[231. Piz Ela (3339 m)]]></name>
			<Point>
				<coordinates>9.7075,46.6019444444444,0</coordinates>
			</Point>
			<Snippet></Snippet>
			<description><![CDATA[<br>Source: Wikipedia article <a href="https://en.wikipedia.org/wiki/List_of_mountains_of_the_Alps_above_3000_m#cite_ref-vob_16-1">List of mountains of the Alps above 3000 m</a>]]></description>
		</Placemark>
		<Placemark>
			<name><![CDATA[232. Roteck (3337 m)]]></name>
			<Point>
				<coordinates>10.9841666666667,46.7236111111111,0</coordinates>
			</Point>
			<Snippet></Snippet>
			<description><![CDATA[<br>Source: Wikipedia article <a href="https://en.wikipedia.org/wiki/List_of_mountains_of_the_Alps_above_3000_m#cite_ref-vob_16-1">List of mountains of the Alps above 3000 m</a>]]></description>
		</Placemark>
		<Placemark>
			<name><![CDATA[233. Pta Sommeiller (3332 m)]]></name>
			<Point>
				<coordinates>6.8525,45.1283333333333,0</coordinates>
			</Point>
			<Snippet></Snippet>
			<description><![CDATA[<br>Source: Wikipedia article <a href="https://en.wikipedia.org/wiki/List_of_mountains_of_the_Alps_above_3000_m#cite_ref-vob_16-1">List of mountains of the Alps above 3000 m</a>]]></description>
		</Placemark>
		<Placemark>
			<name><![CDATA[234. Fuscherkarkopf (3331 m)]]></name>
			<Point>
				<coordinates>12.7455555555556,47.0988888888889,0</coordinates>
			</Point>
			<Snippet></Snippet>
			<description><![CDATA[<br>Source: Wikipedia article <a href="https://en.wikipedia.org/wiki/List_of_mountains_of_the_Alps_above_3000_m#cite_ref-vob_16-1">List of mountains of the Alps above 3000 m</a>]]></description>
		</Placemark>